postalcode,street,lat,lng,price,area,volume,floors,year_build,has_garden,type,photos,rooms
1015 AK Amsterdam,Langestraat 31,52.377990000000004,4.891947,895000,164,450,4,1700,0,woonhuis,42,5
1018 LZ Amsterdam,Kleine Wittenburgerstraat 124,52.37103,4.921513,275000,56,189,1,1981,0,appartement,27,2
1073 TB Amsterdam,Karel du Jardinstraat 53 HS+PP,52.35155,4.895647,550000,83,328,1,2000,1,appartement,39,3
1073 XA Amsterdam,Gerard Doustraat 190 III,52.35642,4.895630000000001,375000,69,222,1,1880,0,appartement,18,2
1067 MT Amsterdam,Jan van Duivenvoordestraat 137,52.379490000000004,4.8025910000000005,249000,97,295,1,2002,0,appartement,22,4
1017 BM Amsterdam,Reguliersdwarsstraat 46 -D*,52.3662,4.891655,650000,96,290,1,1999,0,appartement,26,3
1108 CD Amsterdam,Leerdamhof 334,52.306470000000004,4.977508,160000,71,180,1,1976,1,appartement,28,2
1077 NS Amsterdam,Minervalaan 71 -hs,52.34584,4.873051,1150000,131,445,1,1930,1,appartement,22,5
1066 TK Amsterdam,Blankenbergestraat 61,52.346790000000006,4.80147,450000,170,500,3,1995,1,woonhuis,36,5
1057 PT Amsterdam,Van Kinsbergenstraat 88,52.3687,4.858505999999999,400000,73,235,1,2011,0,appartement,35,3
1054 ZH Amsterdam,Jacob van Lennepkade 71 H,52.36544,4.873928,700000,104,252,4,1895,1,appartement,34,4
1074 GA Amsterdam,Diamantstraat 17 / A-1,52.3518,4.905856,420000,84,238,1,1906,0,appartement,16,4
1013 Amsterdam,Houthavenweg,52.38232,4.894955,454761,93,260,1,2017,0,appartement,9,3
1011 MK Amsterdam,Rapenburgerstraat,52.3695,4.908419,60000,0,0,1,0,0,parkeergelegenheid,1,1
1011 KN Amsterdam,'s-Gravelandse Veer 10 SOUS,52.3679,4.89708,450000,77,308,5,1850,0,appartement,20,2
1052 VL Amsterdam,Gillis van Ledenberchstraat 128 I,52.3754,4.871169999999999,325000,60,180,5,1931,0,appartement,26,3
1108 DT Amsterdam,Leusdenhof 347,52.30692,4.980338,177500,75,266,1,1980,1,appartement,19,3
1012 JS Amsterdam,Dam 5 /N,52.373090000000005,4.89409,2850000,211,580,1,2017,0,appartement,20,4
1013 Amsterdam,Narva Eiland West (Bouwnr. 80),52.38232,4.894955,1037459,170,425,1,2017,0,appartement,8,4
1068 ZW Amsterdam,Geer Ban 29,52.3647,4.8029779999999995,375000,132,459,2,2009,1,woonhuis,31,5
1058 GD Amsterdam,Andreasplein 34,52.356840000000005,4.84521,650000,115,364,1,2010,1,appartement,21,4
1017 GJ Amsterdam,Kerkstraat 205 -B,52.3632,4.890658999999999,499000,74,245,2,1906,0,appartement,16,3
1071 VN Amsterdam,Cornelis Anthoniszstraat 11 II,52.35349,4.883309,395000,53,175,1,1899,0,appartement,21,3
1033 XG Amsterdam,Perseusstraat 10,52.4161,4.87781,200000,84,210,2,1958,1,appartement,28,4
1064 CK Amsterdam,Burgemeester Hogguerstraat 15,52.37142,4.830582,47500,0,0,1,0,0,parkeergelegenheid,8,1
1069 EE Amsterdam,Langswater 601,52.3574,4.78895,169011,73,175,1,1960,0,appartement,16,4
1063 GE Amsterdam,Robbert Cijferstraat 10,52.38346,4.825437,260000,105,263,2,1953,1,woonhuis,21,5
1098 KV Amsterdam,Wethouder Frankeweg 1,52.35119,4.935385,400000,199,660,2,1906,0,appartement,8,1
1022 KD Amsterdam,Noorderkwartier (Bouwnr. 13),52.406040000000004,4.931375,452396,162,405,2,2016,1,woonhuis,5,6
1018 PS Amsterdam,Czaar Peterstraat 102 A Hs,52.3698,4.9292169999999995,225000,39,154,1,1906,1,appartement,15,2
1013 AW Amsterdam,Silodam,52.39247,4.89045,39000,0,0,1,0,0,parkeergelegenheid,1,1
1055 RZ Amsterdam,Nieuwpoortstraat 86 D8,52.38435,4.858146,525000,116,338,2,2017,1,appartement,20,3
1056 VA Amsterdam,Pieter van der Doesstraat 13,52.37259,4.857101999999999,425000,84,252,4,1933,1,appartement,26,4
1056 PN Amsterdam,Orteliusstraat 288 I,52.3728,4.847966,225000,50,158,1,1927,0,appartement,23,3
1077 BE Amsterdam,Apollolaan 86,52.35085,4.878571,2850000,282,1388,3,1952,1,woonhuis,43,9
1051 RG Amsterdam,Van der Palmkade 86,52.38021,4.872756,525000,98,263,2,2000,0,appartement,19,3
1011 GW Amsterdam,Krom Boomssloot 20 -2,52.37189,4.90225,1150000,225,603,2,1636,0,appartement,33,5
1051 TN Amsterdam,Joan Melchior Kemperstraat 113 I,52.38462,4.870604,500000,100,306,1,1905,0,appartement,38,4
1106 WD Amsterdam,Helena Kuipers-Rietberghof 23,52.300340000000006,4.990554,265000,111,330,3,1986,1,woonhuis,20,5
1035 GE Amsterdam,Stellingweg 208,52.416920000000005,4.8948220000000005,348000,90,375,2,1992,1,woonhuis,12,3
1064 NX Amsterdam,Hof van Versailles 33,52.36785,4.8329059999999995,520000,147,514,3,1998,1,woonhuis,25,5
1017 JJ Amsterdam,Prinsengracht 1113 A,52.36274,4.901083,680000,121,338,1,1906,1,appartement,21,2
1094 GR Amsterdam,Madurastraat 70 II,52.36422,4.934501,250000,50,166,1,1906,0,appartement,20,2
1065 BG Amsterdam,Colenbranderhof 30,52.35863,4.820851,775000,217,680,2,1945,1,woonhuis,25,10
1071 ER Amsterdam,Korte Van Eeghenstraat 1 -II-III,52.35817,4.875272,875000,143,518,3,1906,0,appartement,44,6
1061 AX Amsterdam,Postjesweg 138 L,52.36436,4.838217,195000,45,150,1,2008,0,appartement,38,2
1071 AC Amsterdam,Vossiusstraat 18 H,52.360929999999996,4.880689,1450000,175,488,3,1879,1,appartement,27,6
1019 LZ Amsterdam,Barcelonaplein 166,52.37663,4.944275,225000,52,140,1,1993,0,appartement,18,2
1058 GX Amsterdam,Antillenstraat 21 1,52.35929,4.850907,314000,60,175,1,1930,0,appartement,15,3
1077 EP Amsterdam,Gerrit van der Veenstraat 118 A,52.348890000000004,4.869229,150000,0,0,1,0,0,parkeergelegenheid,6,1
1098 XA Amsterdam,Carolina MacGillavrylaan 33,52.357929999999996,4.944577,300000,77,210,1,2010,0,appartement,23,3
1075 CT Amsterdam,Koninginneweg 231 3,52.35197,4.858802,925000,147,546,2,1884,0,appartement,36,4
1069 EH Amsterdam,Langswater 842,52.35904,4.787989,149000,60,180,13,1960,0,appartement,13,3
1097 CP Amsterdam,Willem Beukelsstraat 1 G,52.35373,4.925801,315000,77,240,1,1981,0,appartement,20,3
1060 NV Amsterdam,Brenner 46,52.35136,4.775930000000001,375000,130,422,3,1997,1,woonhuis,24,5
1091 ZE Amsterdam,President Brandstraat 53,52.35425,4.9177230000000005,450000,108,321,2,1992,0,appartement,22,4
1103 LE Amsterdam,Groenhoven 236,52.32443,4.976826,159000,109,336,1,1976,0,appartement,17,3
1019 ND Amsterdam,Venetiëhof 147,52.37688,4.947633000000001,399000,93,323,1,1995,1,appartement,34,3
1012 SC Amsterdam,Nieuwezijds Voorburgwal 56 A,52.37644,4.893358999999999,264995,34,125,1,1912,0,appartement,6,1
1066 WK Amsterdam,Knokkestraat 78,52.34267,4.8039879999999995,425000,127,368,3,1995,1,woonhuis,20,6
1055 EA Amsterdam,Bos en Lommerweg 347 II,52.378029999999995,4.84755,350000,78,215,1,1940,0,appartement,26,4
1056 CL Amsterdam,Mercatorplein 36 -H,52.37042,4.851037,399000,110,308,2,1935,0,appartement,30,3
1069 HM Amsterdam,Lederambachtstraat 222,52.35457,4.795947,182500,0,0,1,0,0,,1,1
1087 GL Amsterdam,Parkeerplaats blok 23b,52.35544,4.997271,30000,0,0,1,0,0,parkeergelegenheid,1,1
1033 JS Amsterdam,Druivenstraat 55,52.41126,4.903109,700000,151,639,2,1994,1,woonhuis,41,4
1071 ZL Amsterdam,Van Breestraat 135 II,52.35559,4.8721309999999995,1200000,148,520,2,1904,1,appartement,35,5
1106 WR Amsterdam,Cornelis Schuurmanhof 13,52.29759,4.992783,210000,80,270,2,1985,1,woonhuis,27,3
1071 VD Amsterdam,Balthasar Floriszstraat 22 I,52.3531,4.8853599999999995,325000,52,167,1,1899,0,appartement,20,3
1098 JK Amsterdam,Archimedesweg 9,52.35698,4.9374400000000005,1075000,182,300,2,1931,1,appartement,34,6
1098 KV Amsterdam,Wethouder Frankeweg 5 I,52.351279999999996,4.935573000000001,450000,81,243,1,1906,0,appartement,25,3
1107 TG Amsterdam,Silvoldestraat 6,52.2904,4.969258,212000,89,316,1,1983,0,woonhuis,1,4
1015 BK Amsterdam,Herengracht 12 -III-IV,52.3788,4.8912,899000,125,350,3,1605,0,appartement,22,2
1065 AH Amsterdam,Willem Mollhof 13,52.36155,4.825215,325000,97,352,2,1957,1,woonhuis,30,5
1018 Amsterdam,Cruquiuskade,52.37024,4.914168,20000,0,0,1,0,0,parkeergelegenheid,5,1
1013 Amsterdam,Narva Eiland West (Bouwnr. 79),52.38232,4.894955,663098,121,302,1,2017,0,appartement,9,4
1028 BR Amsterdam,Dorpsweg Ransdorp 68 B,52.39349,4.994292,749000,136,969,2,1981,1,woonhuis,33,4
1013 CE Amsterdam,Noordkaapstraat 9,52.39001,4.882264,275000,61,185,1,1985,0,appartement,17,3
1067 AN Amsterdam,Pieter Postsingel 24,52.383590000000005,4.800263,300000,121,305,3,1955,1,woonhuis,29,4
1069 HV Amsterdam,Rengerskerkestraat 14,52.35492,4.793383,225000,97,300,5,2008,0,appartement,12,3
1024 CX Amsterdam,Markengouw 117,52.39236,4.960525,365000,118,420,3,2016,1,woonhuis,34,5
1025 JH Amsterdam,Bovenover 27,52.39634,4.931411,175000,55,158,1,1969,0,appartement,17,2
1067 NB Amsterdam,Berlagehof 32,52.37709,4.795088,250000,107,369,1,1950,1,woonhuis,19,5
1017 DN Amsterdam,Keizersgracht 515 -F,52.365190000000005,4.888431,580000,83,300,1,1906,0,appartement,30,3
1087 LS Amsterdam,Emmy Andriessestraat 430,52.346940000000004,5.009539,549000,136,569,3,2007,1,woonhuis,42,5
1065 LZ Amsterdam,Jan Muschstraat 42,52.35654,4.820981,139000,32,100,2,1984,0,appartement,23,2
1102 NJ Amsterdam,Haardstee 150,52.31171,4.952619,150000,45,120,1,1982,0,appartement,1,2
1073 BK Amsterdam,Albert Cuypstraat 166 E,52.35572,4.894882,399000,70,202,1,1893,0,appartement,17,4
1053 WS Amsterdam,Da Costakade 119 B,52.36875,4.873247,479000,80,240,4,1984,1,appartement,23,3
1053 RE Amsterdam,Borgerstraat 220 II,52.36404,4.861579,240000,45,135,1,1895,0,appartement,17,2
1055 RD Amsterdam,Willem de Zwijgerlaan 334 C14,52.38094,4.860951,200000,49,188,1,2003,0,appartement,26,1
1016 HJ Amsterdam,Prinsengracht 286 F,52.3706,4.88237,1750000,145,445,1,1964,0,appartement,37,3
1087 JA Amsterdam,Erich Salomonstraat 422,52.355309999999996,4.999797,320000,100,330,1,2005,0,appartement,26,4
1015 JN Amsterdam,Goudsbloemstraat 191 A,52.38021,4.88135,295000,47,122,1,1905,1,appartement,14,2
1015 CD Amsterdam,Keizersgracht 37 A,52.37869,4.889431,825000,110,424,3,1620,0,appartement,34,4
1069 KD Amsterdam,Johan Hofmanstraat 307,52.352090000000004,4.79406,250000,96,292,1,2008,0,appartement,20,3
1013 AW Amsterdam,Silodam 444,52.3923,4.8905,465000,90,226,2,2002,0,appartement,28,3
1086 ZJ Amsterdam,IJburglaan 371,52.36242,4.982629,300000,93,292,1,2009,0,appartement,21,3
1017 GN Amsterdam,Kerkstraat 70 F,52.36488,4.886118,448000,66,205,1,1987,1,appartement,24,3
1015 JN Amsterdam,Goudsbloemstraat 205 A,52.3802,4.88123,290000,46,120,1,1905,1,appartement,21,2
1019 HD Amsterdam,Veembroederhof 101,52.37658,4.923405000000001,22500,0,0,1,0,0,parkeergelegenheid,1,1
1067 XW Amsterdam,Burgemeester Röellstraat 620,52.37737,4.804634,219000,85,221,6,2004,0,appartement,15,3
1054 EL Amsterdam,Eerste Helmersstraat 188 I,52.360820000000004,4.864202,395000,68,226,1,1906,0,appartement,19,3
1069 EK Amsterdam,Dijkgraafplein 19,52.35543,4.787601,175000,100,290,2,1969,0,appartement,18,4
1087 ME Amsterdam,Maurits Bingerplantsoen 2,52.34995,5.001779,439000,115,438,3,2001,0,woonhuis,38,5
1079 EG Amsterdam,Waalstraat 160 III,52.34193,4.9017290000000004,260000,55,138,1,1938,0,appartement,15,3
1081 HD Amsterdam,Cannenburg 92,52.33099,4.864289,685000,173,549,3,1964,1,woonhuis,35,5
1032 AJ Amsterdam,Wingerdweg 275,52.396679999999996,4.917816999999999,230000,72,260,2,1926,0,appartement,26,3
1102 VL Amsterdam,Alfred Döblinstraat 34,52.3192,4.94281,142500,55,175,4,1985,0,appartement,23,2
1082 HB Amsterdam,Van Nijenrodeweg 320,52.32756,4.878456,449000,120,380,8,1963,0,appartement,28,5
1054 VX Amsterdam,Wilhelminastraat 85 III,52.3616,4.863777,525000,78,267,2,1903,1,appartement,23,3
1069 TD Amsterdam,H. Gerhardstraat 130,52.35136,4.801743,219000,59,177,4,2012,0,appartement,16,2
1062 EG Amsterdam,Loosduinenstraat 20,52.35079,4.837693,365000,94,254,1,2010,0,appartement,24,3
1068 MS Amsterdam,Professor J.H. Gunningstraat 101,52.35326,4.80323,249000,81,208,1,2007,0,appartement,22,3
1108 EV Amsterdam,Leksmondhof 163,52.31054,4.98343,185000,94,260,9,1977,0,appartement,15,4
1091 CX Amsterdam,Blasiusstraat 110,52.35727,4.912292,299000,0,0,1,0,0,,1,1
1064 PE Amsterdam,Catharina Boudewijnshof 55,52.37798,4.809675,199000,98,294,2,1990,0,appartement,23,4
1055 PS Amsterdam,Haarlemmerweg 651 HS,52.3847,4.8480550000000004,299000,64,230,1,1934,1,appartement,16,3
1053 EX Amsterdam,Kinkerstraat 365 1,52.364290000000004,4.8606370000000005,219000,40,128,1,1916,0,appartement,22,2
1069 EC Amsterdam,Langswater 345,52.355470000000004,4.790049,150000,60,180,13,1965,0,appartement,25,3
1056 TA Amsterdam,John Franklinstraat 71 III,52.372820000000004,4.853398,299000,63,211,2,1932,0,appartement,25,3
1031 Amsterdam,Spadinalaan,52.391009999999994,4.910723,35000,0,0,1,0,0,parkeergelegenheid,1,1
1056 HM Amsterdam,Bestevâerstraat 8 I,52.37263,4.860391,350000,69,221,1,1922,0,appartement,22,4
1052 VG Amsterdam,Gillis van Ledenberchstraat 6 /F,52.37791,4.872829,1250000,249,925,1,1924,0,appartement,42,5
1081 EB Amsterdam,Bolestein 230,52.32573,4.858146,369000,102,295,9,1969,0,appartement,31,4
1019 JX Amsterdam,C.J.K. van Aalststraat 82,52.373059999999995,4.93751,635000,151,549,3,2000,1,woonhuis,36,5
1072 GT Amsterdam,Rustenburgerstraat 365 2,52.35151,4.8926419999999995,325000,60,168,4,1905,0,appartement,27,3
1098 JP Amsterdam,Archimedesweg 8 -l,52.35689,4.936913,350000,70,229,1,1929,0,appartement,38,4
1017 RK Amsterdam,Lijnbaansgracht 251 h,52.36289,4.884746,359000,66,195,1,1937,0,appartement,1,3
1019 TT Amsterdam,Panamakade 166,52.37263,4.940539,600000,112,404,3,2000,1,woonhuis,33,4
1104 HD Amsterdam,Kantershof 541,52.31573,4.988791,230000,154,380,3,1971,1,woonhuis,35,6
1018 XD Amsterdam,Valckenierstraat 21 1,52.36208,4.909507,270000,48,166,1,1925,0,appartement,17,2
1053 WR Amsterdam,Da Costakade 111 I hoog,52.36894,4.873124,275000,47,125,1,1899,0,appartement,17,2
1069 ED Amsterdam,Langswater 426,52.35647,4.788946,175000,74,185,1,1963,0,appartement,20,4
1019 MA Amsterdam,Levantplein 1,52.37679,4.942115,1960000,407,1400,4,1992,0,appartement,41,10
1058 VA Amsterdam,Theophile de Bockstraat 73 -3,52.35475,4.847437,299000,61,207,1,1906,0,appartement,29,3
1069 TD Amsterdam,H. Gerhardstraat 136,52.35152,4.801668,215000,59,155,1,2012,0,appartement,21,2
1098 XB Amsterdam,Carolina MacGillavrylaan 452,52.35723,4.945479,350000,87,284,1,2009,0,appartement,39,3
1031 KG Amsterdam,Céramiquelaan 5,52.38581,4.9033430000000005,540000,107,369,1,2001,1,appartement,30,3
1055 RZ Amsterdam,Nieuwpoortstraat 86 D17,52.38434,4.8577379999999994,420000,84,244,2,2017,1,appartement,20,3
1060 RL Amsterdam,H. Diesveldsingel 3,52.35075,4.789865,350000,124,300,3,1998,1,woonhuis,29,4
1017 KJ Amsterdam,Prinsengracht 532 B,52.36327,4.886665,1250000,175,425,1,1890,0,appartement,18,2
1051 NE Amsterdam,Marcantilaan 307,52.37386,4.8667739999999995,425000,91,277,1,1984,0,appartement,22,4
1015 GZ Amsterdam,Lijnbaansgracht 92,52.374759999999995,4.877547,5000000,639,2722,3,1906,1,woonhuis,29,8
1096 DS Amsterdam,STATE Amsterdam (Bouwnr. 287),52.33965,4.9245220000000005,1168024,190,475,1,2016,0,appartement,3,4
1098 WN Amsterdam,Esplanade de Meer 80,52.34433,4.950086,339000,96,302,1,2001,0,appartement,28,3
1068 NA Amsterdam,Hoekenes 112,52.350570000000005,4.803709,675000,150,450,2,1960,1,woonhuis,20,5
1059 VX Amsterdam,Rietwijkerstraat 85 -1,52.34945,4.846474,249000,54,176,1,1935,0,appartement,11,3
1054 LT Amsterdam,Zocherstraat 51 -II,52.3571,4.856965,399000,65,231,1,1906,0,appartement,19,3
1013 JG Amsterdam,Haarlemmerdijk 100 C,52.38309,4.8867199999999995,495000,105,360,2,1642,0,appartement,20,5
1069 RG Amsterdam,Louis de Visserstraat 15,52.35328,4.794942,209000,74,190,1,1983,0,appartement,20,3
1103 LH Amsterdam,Groenhoven 307,52.32523,4.976748000000001,129900,55,144,1,1976,0,appartement,9,2
1087 Amsterdam,Ben van Meerendonkstraat,52.35863,4.992625,15000,0,0,1,0,0,parkeergelegenheid,4,1
1087 DR Amsterdam,Jean Desmetstraat 10,52.36071,4.991808,450000,135,400,3,2006,0,appartement,32,5
1086 VA Amsterdam,Haringbuisdijk 24,52.36363,4.982608,525000,126,464,3,2010,1,woonhuis,58,5
1068 VM Amsterdam,President Allendelaan 123,52.36633,4.8070129999999995,315000,98,294,6,2006,0,appartement,29,3
1058 KH Amsterdam,Haarlemmermeerstraat 120 III,52.3533,4.85013,599000,122,395,3,1930,0,appartement,30,5
1059 AN Amsterdam,Aalsmeerweg 92 huis,52.34822,4.847575,345000,64,227,1,1930,1,appartement,19,3
1015 HB Amsterdam,Gietersstraat 19,52.37867,4.880428,650000,122,295,1,1906,0,appartement,16,3
1086 Amsterdam,IJburglaan,52.362429999999996,4.982785,25000,0,0,1,0,0,parkeergelegenheid,1,1
1078 LK Amsterdam,Roerstraat 77 I,52.34422,4.897937000000001,449000,90,296,2,1906,1,appartement,38,4
1015 NH Amsterdam,Anjeliersstraat 16 B,52.37828,4.885396,450000,75,200,1,1994,0,appartement,10,3
1102 JH Amsterdam,Nadezjda Mandelstamstraat 41,52.3191,4.95527,275000,135,535,3,2002,1,woonhuis,16,4
1087 GD Amsterdam,Zwanebloemlaan 87,52.35375,4.9958160000000005,825000,183,610,3,2007,1,woonhuis,40,6
1064 NE Amsterdam,Thomas van Aquinostraat 29,52.37315,4.812075,189000,70,205,2,1945,1,woonhuis,13,4
1059 SR Amsterdam,Woestduinstraat 119 I,52.35068,4.847809,275000,53,180,1,1934,0,appartement,19,3
1011 RM Amsterdam,Nieuwe Herengracht 35,52.366440000000004,4.903422,1875000,300,850,4,1670,1,woonhuis,35,10
1035 JZ Amsterdam,Lange Vonder 108,52.42395,4.895417,379000,110,330,3,1993,1,woonhuis,10,4
1054 GG Amsterdam,Vondelstraat 68 -III,52.36206,4.876093,990000,127,467,2,1906,0,appartement,24,4
1066 JX Amsterdam,Brusselsingel 1,52.3448,4.80936,398800,120,412,3,1993,1,woonhuis,36,5
1068 KP Amsterdam,J. de Koostraat 5,52.353809999999996,4.8102540000000005,32000,0,0,1,0,0,parkeergelegenheid,5,1
1093 HP Amsterdam,Reinwardtstraat 180,52.36094,4.927327,249000,50,155,1,1987,0,appartement,20,2
1094 CW Amsterdam,Delistraat 34 D,52.36522,4.9332139999999995,166500,27,67,1,1926,0,appartement,11,1
1023 XC Amsterdam,Molengouw 30,52.3928,4.942965,275000,67,240,3,1906,1,woonhuis,32,5
1054 LK Amsterdam,Overtoom 545 C+D*,52.35755,4.855875,1700000,197,670,2,1961,0,appartement,31,4
1069 MD Amsterdam,Zuiderakerweg 15,52.34898,4.792314,685000,0,0,1,0,0,object,20,1
1071 KX Amsterdam,Alexander Boersstraat 18 H,52.3572,4.878322,1425000,175,675,3,1894,1,appartement,42,7
1071 XB Amsterdam,Ruysdaelstraat 79 A**,52.353229999999996,4.8798379999999995,2285000,244,735,2,2017,1,appartement,10,5
1018 TZ Amsterdam,Hortusplantsoen 14 hs,52.36594,4.907645,275000,36,135,1,1906,1,appartement,17,2
1097 BR Amsterdam,Middenweg 50 I,52.3538,4.9301,400000,83,317,1,1925,0,appartement,21,3
1106 HJ Amsterdam,Mijehof 347,52.301359999999995,4.972333,212500,108,310,3,1983,1,woonhuis,15,5
1102 XM Amsterdam,Dostojevskisingel 301,52.32478,4.950056,99500,35,91,1,1983,0,appartement,1,1
1078 LJ Amsterdam,Roerstraat 47 III,52.34458,4.898946,419000,69,234,1,1906,0,appartement,21,3
1087 GD Amsterdam,Zwanebloemlaan 93,52.35357,4.996405,825000,189,733,3,2008,1,woonhuis,45,7
1071 PM Amsterdam,Nicolaas Maesstraat 5 - 4 hg,52.3555,4.884612000000001,799000,100,330,1,1906,0,appartement,27,3
1097 ES Amsterdam,Pasteurstraat 37 huis,52.3489,4.93677,775000,133,484,2,1902,1,appartement,24,6
1051 NV Amsterdam,Haarlemmerweg 235,52.3851,4.868609999999999,375000,79,229,1,1996,0,appartement,17,3
1012 EZ Amsterdam,Oudezijds Voorburgwal 235 bel,52.36983,4.894786,665000,102,338,2,1906,0,appartement,25,4
1062 EG Amsterdam,Loosduinenstraat 16,52.350809999999996,4.837693,375000,94,254,1,2010,0,appartement,14,3
1058 BZ Amsterdam,Curaçaostraat 64 -3,52.360820000000004,4.852252,515000,109,370,2,1930,0,appartement,27,5
1051 AV Amsterdam,Van der Duijnstraat 4 B,52.38528,4.8765160000000005,299500,69,222,1,1983,0,appartement,18,3
1052 DD Amsterdam,De Wittenkade,52.38142,4.875061,49500,0,0,1,0,0,parkeergelegenheid,7,1
1054 WG Amsterdam,Wilhelminastraat 205 -II,52.3603,4.85844,300000,55,148,1,1906,0,appartement,32,4
1091 VM Amsterdam,Tugelaweg 74 -hs,52.355059999999995,4.918947,205000,40,108,1,1929,0,appartement,11,2
1018 GG Amsterdam,Sarphatistraat 181 HS,52.3626,4.91411,985000,170,581,6,1910,1,appartement,52,6
1068 ZJ Amsterdam,Boutenburg 349,52.36443,4.802173000000001,175000,67,220,9,1961,0,appartement,31,3
1011 PG Amsterdam,Waterlooplein 177 A,52.36842,4.90254,550000,89,266,1,2005,0,appartement,25,3
1019 HD Amsterdam,Veembroederhof 121 *,52.37641,4.924291,659000,146,400,1,2005,0,appartement,25,4
1012 BS Amsterdam,Bloedstraat 13,52.37292,4.899373000000001,270000,0,0,1,0,0,,1,1
1082 KT Amsterdam,Willem van Weldammelaan 79,52.3299,4.876346,895000,153,530,1,2008,0,appartement,49,3
1082 TK Amsterdam,Frieslandstraat 21,52.333420000000004,4.878565,275000,75,250,1,1963,0,appartement,23,4
1055 BB Amsterdam,Lanseloetstraat 29 I,52.3772,4.8495,230000,47,139,1,1931,0,appartement,28,3
1062 JT Amsterdam,Postjesweg 423,52.3637,4.836130000000001,189000,81,247,7,1961,0,appartement,18,4
1013 NN Amsterdam,Barentszstraat 335,52.38859,4.8863080000000005,380000,63,188,1,1906,1,appartement,14,2
1016 AT Amsterdam,Dubbeleworststeeg 2 -boven,52.36838,4.887253,1325000,241,680,3,1906,0,woonhuis,61,5
1078 ET Amsterdam,Churchill-laan 188 HS,52.3473,4.892930000000001,799000,108,416,1,1928,1,appartement,35,3
1066 HH Amsterdam,Borgloonstraat 6 L,52.345420000000004,4.817571,445000,142,419,4,2002,1,woonhuis,30,6
1011 CP Amsterdam,Nieuwe Ridderstraat 6 *,52.373470000000005,4.9019330000000005,650000,105,284,3,1906,0,appartement,9,3
1024 JX Amsterdam,Hilversumstraat 157,52.39095,4.960248,175000,79,250,1,1960,0,appartement,21,4
1065 EG Amsterdam,Jacques Veltmanstraat 93,52.356,4.832699,315000,92,280,12,2003,0,appartement,22,3
1058 NG Amsterdam,Legmeerstraat 60 -II,52.35216,4.851214,719000,135,504,3,1931,0,appartement,30,4
1107 WN Amsterdam,Spakenburgstraat 33,52.291470000000004,4.979437,199500,86,255,2,1985,1,woonhuis,17,4
1035 KA Amsterdam,Noorder Valdeur 3,52.42383,4.892419,215000,74,232,2,1993,0,appartement,22,3
1078 LK Amsterdam,Roerstraat 77 I,52.34422,4.897937000000001,449000,90,296,2,1906,1,appartement,38,4
1012 SW Amsterdam,Stromarkt 49 I/II,52.3783,4.894399,495000,62,150,3,1906,0,appartement,26,4
1068 GL Amsterdam,Martini van Geffenstraat 158,52.3577,4.8029,249000,85,216,7,2002,0,appartement,5,3
1077 KH Amsterdam,Cliostraat 28 II,52.34752,4.8747050000000005,899500,197,532,2,1906,0,appartement,27,6
1091 KW Amsterdam,Maritzstraat 28 III,52.35465,4.919776000000001,350000,69,232,2,1914,0,appartement,28,4
1079 VX Amsterdam,Hunzestraat 113 hs,52.34146,4.904929,460000,75,237,1,1936,1,appartement,23,2
1033 SX Amsterdam,Frambozenstraat 23,52.4099,4.893574,375000,125,438,3,2007,0,woonhuis,31,4
1072 CT Amsterdam,Albert Cuypstraat 10 -D,52.3545,4.887867,197500,36,90,1,1991,0,appartement,32,2
1087 DR Amsterdam,Jean Desmetstraat 24,52.36053,4.992074,329000,106,391,2,2007,0,appartement,29,3
1017 AD Amsterdam,Amstel 136,52.36642,4.898048,779000,103,217,2,1906,0,appartement,37,3
1017 RE Amsterdam,Leidsekruisstraat 15 2,52.36353,4.885123,319000,0,0,1,0,0,,1,1
1058 JP Amsterdam,Haarlemmermeerstraat 41 -III,52.35649,4.850478,650000,129,326,6,1932,0,appartement,28,5
1077 SV Amsterdam,Stadionweg 114 III,52.347,4.8761,600000,110,361,1,1939,0,appartement,22,3
1097 CE Amsterdam,Wakkerstraat 18 1,52.35398,4.928414,300000,64,170,1,1898,0,appartement,15,2
1074 VH Amsterdam,Tolstraat 109 2,52.352470000000004,4.904194,349000,60,155,1,1906,0,appartement,48,3
1091 GR Amsterdam,Wibautstraat 180 E,52.352990000000005,4.912364,425000,86,254,1,1991,0,appartement,29,3
1069 EH Amsterdam,Langswater 847,52.3591,4.78797,165000,61,220,1,1960,0,appartement,23,3
1108 HH Amsterdam,Liendenhof 135,52.308,4.983969999999999,185000,86,277,1,1976,0,appartement,21,3
1074 BN Amsterdam,Hemonystraat 41 B,52.356559999999995,4.902961,199000,29,90,1,1987,0,appartement,14,1
1072 HE Amsterdam,Rustenburgerstraat 364 III,52.3517,4.89265,585000,114,368,2,1904,0,appartement,41,4
1058 EC Amsterdam,Nachtwachtlaan 108,52.36104,4.843311,350000,100,250,1,1968,0,appartement,21,3
1094 GE Amsterdam,Madurastraat 47 III,52.36438,4.933578,450000,100,325,2,1912,0,appartement,28,4
1071 WS Amsterdam,Bronckhorststraat 28 III,52.35283,4.880347,749000,95,318,1,1923,1,appartement,33,3
1103 RN Amsterdam,Geerdinkhof 661,52.32578,4.97865,415000,150,508,3,1987,1,woonhuis,34,6
1013 KX Amsterdam,Bickerswerf 72,52.38559,4.890130999999999,750000,111,310,1,2003,0,appartement,32,3
1087 MN Amsterdam,Jan Vrijmanstraat 287,52.347,5.00844,325000,90,281,1,2009,0,appartement,38,3
1081 GC Amsterdam,Assumburg 112,52.3284,4.8681,275000,84,263,1,1967,0,appartement,22,3
1019 PC Amsterdam,Azartplein 187,52.37747,4.9363269999999995,400000,94,286,2,1995,0,appartement,48,4
1025 XG Amsterdam,Dollardpad 28,52.39785,4.943532,282500,88,276,1,2009,0,appartement,34,3
1106 JK Amsterdam,Montfoorthof 7,52.297259999999994,4.969709,165000,92,258,1,1976,0,appartement,18,4
1013 AD Amsterdam,Westerdoksdijk 397,52.38537,4.892618,475000,84,269,2,2007,0,appartement,23,3
1032 GW Amsterdam,Korenbloemstraat 44,52.39894,4.913958999999999,205000,61,290,2,1929,1,woonhuis,32,4
1069 RT Amsterdam,Klaas Katerstraat,52.35026,4.795815,16500,0,0,1,0,0,,1,1
1018 SJ Amsterdam,Blankenstraat 286 HS,52.36991,4.930143,349500,51,156,2,1906,1,appartement,26,3
1013 BX Amsterdam,Westerdoksdijk 465,52.386140000000005,4.8925019999999995,925000,166,430,1,2006,1,appartement,12,4
1068 CN Amsterdam,Ruimzicht 51,52.36229,4.807104,180000,89,204,1,1967,0,appartement,22,3
1106 ZG Amsterdam,Cornelis Aarnoutsstraat 66,52.29919,4.993279,244750,108,345,3,1986,1,woonhuis,21,4
1073 GH Amsterdam,Rustenburgerstraat 132 H,52.352990000000005,4.901326,649000,106,388,2,1903,1,appartement,22,4
1075 BL Amsterdam,Sophialaan 3 3,52.35353,4.8598550000000005,950000,137,500,1,1919,0,appartement,51,3
1107 DH Amsterdam,Wethouder Vospad 40,52.29148,4.991937,285000,125,345,3,1986,1,woonhuis,12,4
1060 RS Amsterdam,Pond Sterlinglaan 40,52.34851,4.788953,445500,145,348,1,1998,0,woonhuis,1,5
1023 VK Amsterdam,Watergangseweg 12 /hs,52.39394,4.941796,210000,54,150,1,1950,1,appartement,20,3
1019 EW Amsterdam,Rietlandterras 18,52.371629999999996,4.935383,400000,105,397,2,2002,1,appartement,36,3
1017 NA Amsterdam,Leidsegracht 17 I,52.36703,4.885815,372000,62,245,1,1906,0,appartement,9,1
1102 AB Amsterdam,Martin Ennalsplein 12,52.31712,4.954986,315000,147,390,1,2008,0,appartement,1,6
1055 LT Amsterdam,Admiraal De Ruijterweg 251 3,52.37834,4.857080000000001,415000,101,300,2,1906,0,appartement,18,4
1071 ZW Amsterdam,Van Breestraat 142 II-III,52.35573,4.871792,1100000,150,535,2,1906,1,appartement,37,6
1019 TK Amsterdam,Lampenistenstraat 103,52.37325,4.943942,525000,111,237,3,1999,0,woonhuis,24,5
1011 CH Amsterdam,Binnen Bantammerstraat 9 -I,52.373870000000004,4.902182,600000,106,285,1,1906,0,appartement,17,2
1015 LB Amsterdam,Boomstraat 57 -A,52.37901,4.884052,397500,61,233,2,1986,1,appartement,21,3
1055 RZ Amsterdam,Nieuwpoortstraat 94 D14,52.38433,4.856953,420000,84,244,2,2017,1,appartement,20,3
1013 KP Amsterdam,Grote Bickersstraat 69 -HS,52.38542,4.889133999999999,375000,71,215,2,2004,0,appartement,27,3
1077 SC Amsterdam,Stadionweg 67 I,52.34665,4.874629,600000,115,360,1,1932,0,appartement,30,7
1015 CW Amsterdam,Keizersgracht 130 A,52.376670000000004,4.886677,940000,115,354,2,1755,0,appartement,26,3
1075 NB Amsterdam,Cornelis Krusemanstraat 7 III,52.3513,4.863553,845000,142,472,2,1906,0,appartement,26,4
1011 LZ Amsterdam,Valkenburgerstraat 36 D,52.37032,4.908261,515000,90,263,6,2000,0,appartement,20,3
1102 VB Amsterdam,Barbusselaan 372,52.3187,4.94559,145000,42,100,4,1986,0,appartement,9,2
1068 NK Amsterdam,Pieter Calandlaan 413,52.35409,4.81119,225000,82,270,2,1965,0,appartement,24,3
1094 JT Amsterdam,Balistraat 98 -D,52.36308,4.936996,300000,63,219,2,1915,0,appartement,30,3
1027 AJ Amsterdam,Achterlaan 5 A,52.40652,4.966343,750000,141,505,2,1975,1,woonhuis,37,5
1013 RW Amsterdam,Zaanstraat 134,52.38884,4.876507,300000,64,194,2,1915,1,appartement,40,3
1098 WP Amsterdam,Esplanade de Meer 170,52.34476,4.950889,349000,96,305,1,2001,0,appartement,29,3
1073 GP Amsterdam,Lutmastraat 67 2,52.35072,4.895642,339000,59,190,1,1906,0,appartement,22,3
1059 VP Amsterdam,Woubruggestraat 39 hs,52.34798,4.849705999999999,325000,65,175,1,1930,1,appartement,28,3
1054 MJ Amsterdam,Jan Pieter Heijestraat 144 D,52.361940000000004,4.864281,227000,35,100,1,1900,0,appartement,12,1
1063 GE Amsterdam,Robbert Cijferstraat 12,52.38345,4.825239,260000,105,263,2,1953,1,woonhuis,13,5
1035 NP Amsterdam,Kadoelenweg 264,52.4155,4.906494,450000,120,400,2,1920,1,woonhuis,40,5
1069 CL Amsterdam,Wolbrantskerkweg 51,52.359320000000004,4.796896,400000,0,0,1,0,0,,1,1
1075 NX Amsterdam,Des Présstraat 4 II+III,52.35092,4.859551000000001,1195000,150,450,2,1914,0,appartement,42,6
1063 AE Amsterdam,Harry Koningsbergerstraat 98,52.3841,4.838030000000001,120000,31,90,1,1958,0,appartement,25,1
1015 HN Amsterdam,Palmgracht 64 1,52.38212,4.882739,300000,41,140,1,1935,0,appartement,20,2
1066 KZ Amsterdam,Arendonksingel 38,52.34878,4.813536,387500,131,355,3,1991,1,woonhuis,30,6
1059 TK Amsterdam,Westlandgracht 181 II,52.350159999999995,4.846186,245000,54,185,1,1906,0,appartement,24,3
1033 AE Amsterdam,Dierenriem 61,52.417809999999996,4.879904,210000,84,220,2,1958,1,woonhuis,22,4
1087 GE Amsterdam,IJburglaan 902,52.3544,4.99621,350000,107,340,1,2003,0,appartement,23,4
1017 SB Amsterdam,Weteringschans 99 - 2,52.3609,4.887587,1785000,255,803,3,1906,0,appartement,34,8
1013 PM Amsterdam,Van Linschotenstraat 6,52.38962,4.887198000000001,349000,65,160,1,1906,0,appartement,20,3
1068 HZ Amsterdam,Eastonstraat 18,52.357009999999995,4.816436,200000,78,228,1,1962,0,appartement,20,3
1108 HP Amsterdam,Liendenhof 228,52.30827,4.9820660000000005,259000,112,250,2,1957,1,appartement,32,3
1011 EH Amsterdam,Geldersekade 11 III,52.37572,4.902531,325000,64,169,1,1914,0,appartement,17,2
1073 ST Amsterdam,Pieter Aertszstraat 86 HS,52.352470000000004,4.902223,385000,55,210,1,1906,1,appartement,23,2
1087 HA Amsterdam,Polygoongracht 34,52.35502,5.002219,625000,142,524,3,2008,1,woonhuis,45,5
1057 ZX Amsterdam,Jan van Riebeekstraat 10 I,52.3708,4.8582980000000004,300000,61,201,3,1925,0,appartement,15,3
1058 EB Amsterdam,Nachtwachtlaan 48,52.3611,4.843293,350000,100,250,1,1970,0,appartement,17,3
1107 BV Amsterdam,Wethouder Steinmetzstraat 5,52.29596,4.995389,315000,136,386,1,1987,0,woonhuis,1,7
1102 VB Amsterdam,Barbusselaan 390,52.31857,4.945724,175000,70,215,1,1985,0,appartement,22,3
1051 RH Amsterdam,Van der Palmkade 116,52.38,4.872287,457500,87,225,1,2001,0,appartement,27,3
1083 EE Amsterdam,Van Nijenrodeweg 79,52.32758,4.883913,300000,86,288,1,1967,0,appartement,17,3
1024 KL Amsterdam,Hilverbeekstraat 36,52.39029,4.961973,310000,118,353,2,1969,1,woonhuis,22,5
1055 RL Amsterdam,Juliana van Stolbergstraat 49 -II,52.38073,4.856464,175000,56,168,1,1931,0,appartement,18,3
1071 GK Amsterdam,Van Eeghenstraat 82,52.35725,4.871498,18750000,896,2920,4,1899,1,woonhuis,60,26
1092 VW Amsterdam,Retiefstraat 39 III,52.3559,4.923719999999999,455000,95,334,5,1911,0,appartement,13,3
1087 JA Amsterdam,Lumierestraat,52.35474,5.000797,25900,0,0,1,0,0,parkeergelegenheid,5,1
1087 KA Amsterdam,Lisdoddelaan 92,52.35225,4.994179,1085000,190,728,2,2001,1,woonhuis,20,6
1068 PH Amsterdam,Oeverpad 199,52.365190000000005,4.8076099999999995,400000,124,383,1,2007,0,appartement,29,4
1052 RS Amsterdam,Bilderdijkkade 7 III+IV,52.37083,4.86855,699000,124,395,2,1906,0,appartement,31,4
1071 CW Amsterdam,Van de Veldestraat 7 hs,52.3589,4.88031,1950000,274,833,3,1902,1,appartement,28,7
1055 GA Amsterdam,Grianestraat 17 hs,52.379870000000004,4.850042,190000,49,161,1,1950,0,appartement,12,3
1098 JP Amsterdam,Archimedesweg 8 -l,52.35689,4.936913,350000,70,229,1,1929,0,appartement,38,4
1067 BD Amsterdam,Antoon Keldermansstraat 22,52.38303,4.797537999999999,260000,98,260,2,1958,1,woonhuis,27,5
1087 Amsterdam,Maria Austriastraat,52.35863,4.992625,17500,0,0,1,0,0,parkeergelegenheid,1,1
1072 XZ Amsterdam,Quellijnstraat 104 III,52.356609999999996,4.892086,700000,117,371,2,2001,0,appartement,22,3
1091 XD Amsterdam,President Brandstraat 17,52.35454,4.9185419999999995,440000,90,240,1,1992,0,appartement,1,3
1054 WB Amsterdam,Wilhelminastraat 115 3,52.361270000000005,4.862391000000001,750000,107,329,2,1906,0,appartement,33,5
1097 BM Amsterdam,Holland  Park,52.35478,4.928694999999999,519000,122,411,1,2018,1,appartement,11,4
1094 SZ Amsterdam,Formosastraat 66,52.3599,4.93486,250000,60,188,1,1986,1,appartement,30,2
1018 PX Amsterdam,Czaar Peterstraat 180,52.37138,4.931814,375000,75,250,4,1906,1,appartement,29,3
1075 GP Amsterdam,Valeriusstraat 292 III,52.35132,4.857606,700000,116,391,2,1913,1,appartement,29,4
1015 GN Amsterdam,Lijnbaansgracht 14 1,52.38241,4.882409,189000,24,82,4,1906,0,appartement,9,2
1060 TN Amsterdam,P. Hans Frankfurthersingel 110,52.3464,4.79482,390000,146,463,2,2004,0,appartement,30,4
1071 XC Amsterdam,Ruysdaelstraat 93 2,52.353120000000004,4.879264,425000,66,192,1,1905,0,appartement,20,3
1054 KA Amsterdam,Kattenlaan 51,52.35987,4.864726999999999,425000,82,202,1,1991,0,appartement,21,3
1094 EG Amsterdam,Bankastraat 36 II,52.364740000000005,4.933659,280000,56,192,1,1927,0,appartement,39,3
1018 AV Amsterdam,Sarphatistraat,52.36522,4.9222220000000005,32500,0,0,1,0,0,parkeergelegenheid,1,1
1059 XS Amsterdam,Stolwijkstraat 29 2,52.35062,4.84872,285000,56,165,1,1930,0,appartement,17,3
1075 XS Amsterdam,Amstelveenseweg 202 II,52.3518,4.85613,485000,83,248,1,1911,0,appartement,19,3
1096 HR Amsterdam,Omval 339,52.3444,4.915430000000001,455000,100,301,1,1997,0,appartement,27,3
1061 CC Amsterdam,Ernest Staesstraat 45 II,52.376740000000005,4.8395790000000005,220500,57,140,1,1952,0,appartement,17,3
1058 EG Amsterdam,Nachtwachtlaan 184,52.3617,4.844119999999999,210000,59,160,1,1968,0,appartement,18,2
1067 WH Amsterdam,L.J.M. Beelstraat 29,52.38237,4.791114,285000,100,360,1,1991,0,woonhuis,1,4
1082 BK Amsterdam,Dever 45,52.325179999999996,4.86955,29000,0,0,1,0,0,parkeergelegenheid,4,1
1079 LL Amsterdam,Amsteldijk 280,52.3342,4.9017800000000005,2000000,0,0,1,0,0,object,11,1
1055 RZ Amsterdam,Nieuwpoortstraat 86 A15,52.38426,4.8578,322500,62,220,1,2017,1,appartement,20,3
1066 GK Amsterdam,Chet Bakerstraat 1,52.34455,4.8247290000000005,379000,108,324,1,1992,0,appartement,24,3
1019 BZ Amsterdam,Veemkade 1182,52.374759999999995,4.933941,550000,107,330,5,1994,0,appartement,33,3
1016 VL Amsterdam,Eerste Looiersdwarsstraat 13 -B,52.36903,4.881126999999999,455000,75,225,3,1905,0,appartement,18,3
1016 AA Amsterdam,Singel 206 A,52.373999999999995,4.88863,995000,123,423,1,1906,0,appartement,25,3
1071 PB Amsterdam,De Lairessestraat 46 -III+IV,52.35476,4.875534,895000,149,447,2,1916,0,appartement,37,4
1054 DV Amsterdam,Eerste Helmersstraat 197,52.36153,4.86801,1900000,402,1400,5,1910,1,woonhuis,69,11
1015 WJ Amsterdam,Marnixstraat 263 -1V,52.375209999999996,4.877219,165000,24,84,1,1876,0,appartement,20,1
1078 JP Amsterdam,Diezestraat 6 -hs,52.346059999999994,4.891779,400000,73,271,1,1930,1,appartement,14,3
1107 AX Amsterdam,Wethouder In 't Veldstraat 57,52.2936,4.9915199999999995,159500,66,225,2,1984,0,appartement,18,3
1072 XP Amsterdam,Quellijnstraat 41 E,52.35695,4.889442,480000,68,211,4,1879,0,appartement,23,3
1056 DE Amsterdam,Hoofdweg 398 hs,52.3733,4.848873,215000,58,226,1,1931,1,appartement,13,2
1073 BG Amsterdam,Albert Cuypstraat 229 4,52.35641,4.896518,150000,25,87,1,1906,0,appartement,14,1
1077 BN Amsterdam,Michelangelostraat 7 II,52.34983,4.871137,1695000,222,718,3,1927,0,appartement,34,6
1033 ZP Amsterdam,Reizigersweg 215,52.417390000000005,4.8834349999999995,175000,52,153,4,1989,0,appartement,12,2
1079 JB Amsterdam,Vechtstraat 81 -III,52.34395,4.907430000000001,500000,113,355,5,1906,0,appartement,32,4
1055 BS Amsterdam,Sanderijnstraat 18 II,52.376999999999995,4.85111,244000,55,159,1,1940,0,appartement,28,3
1013 MM Amsterdam,IJdok 63,52.38459,4.894315,1725000,248,720,1,2012,1,appartement,35,4
1051 JT Amsterdam,Van Bossestraat 45 2,52.380790000000005,4.8689919999999995,200000,33,92,1,1915,0,appartement,15,2
1012 GL Amsterdam,Oudezijds Voorburgwal 266 -D,52.37146,4.895018,800000,100,442,1,2007,0,appartement,29,4
1061 VX Amsterdam,Derkinderenstraat 144,52.367709999999995,4.840657,375000,101,330,1,2008,0,appartement,32,4
1022 KD Amsterdam,Noorderkwartier (Bouwnr. 61),52.406040000000004,4.931375,533868,172,430,2,2016,1,woonhuis,4,5
1021 PS Amsterdam,Het Dok 11,52.3827,4.91603,210000,48,149,1,1983,0,appartement,25,2
1061 EX Amsterdam,Lauernessestraat 6 II,52.38214,4.841772,200000,53,150,4,1951,0,appartement,22,3
1094 HL Amsterdam,Javastraat 80 4,52.3636,4.934936,319000,58,181,1,1905,0,appartement,17,2
1033 HN Amsterdam,Vegastraat 51,52.410059999999994,4.889105000000001,289000,90,227,2,1937,1,woonhuis,22,5
1064 EA Amsterdam,Burgemeester Hogguerstraat 759,52.3723,4.829312,150000,46,155,1,1963,0,appartement,28,2
1035 HD Amsterdam,Bruinvisstraat 27,52.42364,4.88435,200000,95,240,3,1991,1,woonhuis,32,4
1103 JX Amsterdam,Parkeerplaats Ganzenpoort,52.32253,4.972099,7750,0,0,1,0,0,parkeergelegenheid,1,1
1011 Amsterdam,Valkenburgerstraat,52.37777,4.905539,75000,0,0,1,0,0,parkeergelegenheid,2,1
1021 JD Amsterdam,Meeuwenlaan 187 -B,52.38584,4.918916,275000,75,275,3,1930,0,appartement,31,4
1069 SE Amsterdam,Pieter Calandlaan 1083,52.35099,4.796082,272500,85,271,1,2006,0,appartement,20,3
1107 LD Amsterdam,Steenderenstraat 78,52.29425,4.983179,159000,88,255,1,1983,0,appartement,23,3
1068 NA Amsterdam,Hoekenes 106,52.35116,4.803448,685000,185,500,1,1967,0,woonhuis,1,5
1013 AK Amsterdam,Bouwnummer 111 (Bouwnr. 111),52.39695,4.881737,649750,139,606,3,2019,1,woonhuis,1,3
1074 XG Amsterdam,Sint Willibrordusdwarsstraat 4 1,52.35475,4.90411,250000,40,125,1,1910,0,appartement,27,2
1064 LD Amsterdam,Aristotelesstraat 13,52.373129999999996,4.817245,325000,0,0,1,0,0,,1,1
1091 KA Amsterdam,Derde Oosterparkstraat,52.35617,4.9161589999999995,5000,0,0,1,0,0,parkeergelegenheid,1,1
1108 DL Amsterdam,Leusdenhof 255,52.30722,4.979378,232000,77,215,1,1980,0,appartement,25,4
1063 Amsterdam,Antony Moddermanstraat,52.38029,4.835661,38000,0,0,1,0,0,parkeergelegenheid,4,1
1053 EB Amsterdam,Kinkerstraat 88,52.36727,4.8718069999999996,210000,0,0,1,0,0,,1,1
1015 BL Amsterdam,Herengracht 34 -t/o,52.37828,4.890739,385000,50,155,1,1927,0,woonhuis,13,1
1053 SH Amsterdam,Tweede Kostverlorenkade 159 I,52.361999999999995,4.8583300000000005,265000,55,143,1,1912,0,appartement,21,2
1012 JD Amsterdam,Warmoesstraat 16 C,52.37603,4.898976,625000,150,320,2,1906,0,appartement,30,4
1106 JD Amsterdam,Rhenenhof 38,52.297579999999996,4.971623,169000,92,262,1,1976,0,appartement,20,4
1072 JT Amsterdam,Pijnackerstraat 8 -3,52.35038,4.889748,459000,77,251,2,1906,0,appartement,21,3
1093 HX Amsterdam,Wijttenbachstraat 285,52.36107,4.92894,330000,86,270,1,1983,0,appartement,18,4
1095 BJ Amsterdam,Molukkenstraat 433,52.3599,4.94059,399500,94,315,1,1983,0,appartement,41,4
1017 GP Amsterdam,Kerkstraat 118,52.364329999999995,4.886985,2160000,168,501,1,2017,1,appartement,13,3
1066 AZ Amsterdam,Ottho Heldringstraat 204 G,52.34879,4.832084,239000,57,155,1,2010,0,appartement,22,2
1087 JT Amsterdam,Zwanebloemlaan 99,52.35325,4.996805999999999,889000,180,550,3,2007,1,woonhuis,26,5
1019 HP Amsterdam,Zeeburgerkade 388,52.36922,4.943057,500000,112,390,1,1890,1,appartement,47,3
1065 EW Amsterdam,Van Mourik Broekmanstraat 10 - III,52.356609999999996,4.826761,200000,73,247,3,1960,0,appartement,21,3
1035 PM Amsterdam,Zuideinde 238,52.42422,4.88799,349000,110,310,3,2008,1,woonhuis,15,3
1078 KH Amsterdam,Krammerstraat 10 II-III,52.34602,4.887361,769500,140,481,2,1928,0,appartement,40,6
1067 VM Amsterdam,Gerda Brautigamstraat 29,52.3792,4.78939,325000,102,320,3,1991,1,woonhuis,26,4
1023 NM Amsterdam,Schellingwouderdijk 342 F,52.381609999999995,4.9657089999999995,289000,0,0,1,0,0,,1,1
1068 ZW Amsterdam,Geer Ban 5,52.36535,4.802689,485000,160,680,4,2009,1,woonhuis,35,7
1035 KG Amsterdam,Buitendijk 7,52.423840000000006,4.896191,295000,94,323,3,1993,1,woonhuis,29,4
1071 PE Amsterdam,De Lairessestraat 66 -2,52.35438,4.874141000000001,925000,129,480,2,1906,0,appartement,27,4
1071 HA Amsterdam,Willemsparkweg 187 III,52.35569,4.869987,650000,100,306,1,1906,0,appartement,18,3
1071 AK Amsterdam,Vossiusstraat 67,52.35971,4.876253,1995000,190,617,5,1906,1,appartement,43,5
1054 WE Amsterdam,Wilhelminastraat 183 III,52.36063,4.859814,425000,67,200,5,1906,0,appartement,28,3
1077 WD Amsterdam,Herman Gorterstraat 7,52.34663,4.884595,2395000,248,1035,4,1938,1,woonhuis,54,10
1067 NB Amsterdam,Berlagehof 14,52.37659,4.794989,449000,190,513,1,1954,0,woonhuis,47,4
1024 BM Amsterdam,Beemsterstraat 320,52.394,4.949380000000001,190000,75,245,1,1966,0,appartement,38,4
1082 SZ Amsterdam,Wedderborg 151,52.33337,4.872814,250000,68,211,1,1963,0,appartement,22,4
1078 MZ Amsterdam,Biesboschstraat 70 -III,52.345079999999996,4.895763,650000,125,430,2,1928,0,appartement,26,5
1075 CG Amsterdam,Koninginneweg 51 hs,52.35427,4.867522,1595000,212,808,3,1899,1,appartement,25,6
1019 AJ Amsterdam,Cruquiusweg 100 F,52.36806,4.953345,468000,257,643,1,2015,0,appartement,12,2
1015 WK Amsterdam,Marnixstraat 277 1A,52.3749,4.877032,179000,27,83,1,1906,0,appartement,16,1
1069 KD Amsterdam,Johan Hofmanstraat 151,52.35286,4.796751,262500,96,296,1,2008,0,appartement,33,4
1013 Amsterdam,Silodam,52.38232,4.894955,34000,0,0,1,0,0,parkeergelegenheid,1,1
1082 MT Amsterdam,George Gershwinlaan 107,52.33585,4.873037999999999,775000,142,590,3,2011,1,appartement,34,3
1054 MJ Amsterdam,Jan Pieter Heijestraat 144 C,52.361940000000004,4.864278,227000,35,100,1,1900,0,appartement,14,1
1016 CR Amsterdam,Leidsegracht 78 /bv,52.36605,4.881894,1250000,200,600,6,1906,0,appartement,20,6
1016 CX Amsterdam,Leidsekade 58 B,52.36596,4.879193,489000,76,270,1,1906,0,appartement,19,3
1054 DV Amsterdam,Eerste Helmersstraat 197 III hg,52.36153,4.86801,360000,71,220,5,1910,0,appartement,21,2
1025 RH Amsterdam,Urkstraat 32,52.39405,4.926413,275000,76,268,2,1931,1,woonhuis,24,5
1033 ZA Amsterdam,Kermispad 89,52.416920000000005,4.884837999999999,209011,62,191,1,1989,0,appartement,20,3
1025 BK Amsterdam,Spelderholt 51,52.39994,4.945744,179000,75,238,1,1960,0,appartement,18,4
1058 EP Amsterdam,Nachtwachtlaan 415,52.36309,4.843973,325000,98,250,1,1968,0,appartement,12,3
1021 CE Amsterdam,Eendenstraat 7,52.38793,4.91907,235000,51,150,1,1919,1,appartement,25,2
1095 CC Amsterdam,Javastraat 161 A,52.36383,4.940715,275000,64,190,1,1906,1,appartement,27,3
1093 CE Amsterdam,Wagenaarstraat 43,52.362790000000004,4.924237000000001,335000,80,216,4,1981,0,appartement,21,3
1091 NA Amsterdam,Hofmeyrstraat 38 III+IV,52.3509,4.916998,375000,77,243,2,1927,1,appartement,49,4
1056 KE Amsterdam,Geuzenstraat 38 huis,52.3721,4.865241999999999,310000,56,153,1,1931,1,appartement,15,3
1012 NK Amsterdam,Sint Nicolaasstraat 16,52.375029999999995,4.893349,1250000,195,495,5,1906,0,woonhuis,34,9
1071 RX Amsterdam,Frans van Mierisstraat 72 III/IV,52.35405,4.879664,850000,118,350,2,1906,0,appartement,32,4
1054 JZ Amsterdam,Overtoom 480 II,52.359320000000004,4.860711,519500,85,286,5,1906,0,appartement,26,4
1071 EW Amsterdam,Van Eeghenstraat 59 -I,52.35747,4.8740760000000005,585000,59,222,1,1906,0,appartement,18,2
1096 DS Amsterdam,STATE Amsterdam (Bouwnr. 1148),52.33965,4.9245220000000005,38273,0,0,1,0,0,parkeergelegenheid,1,1
1106 HA Amsterdam,Mijehof 41,52.30263,4.9703040000000005,209000,108,310,3,1983,1,woonhuis,19,5
1051 BS Amsterdam,Van Hogendorpstraat 76 II,52.38353,4.874847,200000,40,127,3,1899,0,appartement,21,2
1052 EM Amsterdam,Eerste Kostverlorenkade 13 1,52.37901,4.873448000000001,249000,54,177,1,1922,0,appartement,20,3
1077 NL Amsterdam,Minervalaan 35 II,52.348490000000005,4.872747,475000,80,282,1,1928,0,appartement,19,3
1012 XL Amsterdam,Voetboogstraat 4 II,52.36834,4.890572,325000,50,146,1,1908,0,appartement,36,2
1055 XN Amsterdam,Louise de Colignystraat 54 III,52.38046,4.85682,185000,55,165,1,1937,0,appartement,19,3
1012 BS Amsterdam,Bloedstraat 13,52.37292,4.899373000000001,270000,0,0,1,0,0,,1,1
1087 JC Amsterdam,Maria Austriastraat 682,52.3534,4.9999,360000,126,335,1,2006,0,appartement,22,3
1012 JS Amsterdam,Dam 5 /Z,52.373090000000005,4.89409,24700000,1047,3760,3,2017,1,appartement,20,15
1015 GR Amsterdam,Lijnbaansgracht 36 A,52.38005,4.8809260000000005,675000,124,361,4,1900,0,appartement,35,5
1060 TA Amsterdam,Samosstraat 38,52.34545,4.792311,389000,138,455,3,2002,1,woonhuis,22,4
1022 KD Amsterdam,Noorderkwartier (Bouwnr. 34),52.406040000000004,4.931375,412396,139,348,2,2016,1,woonhuis,3,5
1069 GZ Amsterdam,Ekingenstraat 112,52.35603,4.796796,189000,81,240,1,1960,0,appartement,23,3
1094 LG Amsterdam,Tweede Atjehstraat 20 IV,52.36185,4.9331309999999995,335000,61,150,1,1906,0,appartement,21,3
1068 ZT Amsterdam,Kweekhoven 3,52.364020000000004,4.804368,299000,112,285,2,2009,0,appartement,21,4
1018 AK Amsterdam,Funenpark 427,52.36873,4.930435,730000,116,370,1,2007,0,appartement,37,4
1035 PS Amsterdam,Landsmeerderdijk 39,52.4152,4.8996010000000005,615000,146,479,3,1900,1,woonhuis,39,5
1019 NA Amsterdam,Venetiëhof 36,52.37751,4.947144000000001,375000,88,215,1,1994,0,appartement,23,3
1071 CM Amsterdam,Jan Luijkenstraat 6 -3,52.36065,4.884081,475000,75,272,1,1896,0,appartement,27,2
1095 Amsterdam,John Blankensteinstraat (Bouwnr. 06),52.36629,4.940455,699000,116,432,4,2017,1,woonhuis,1,8
1055 RZ Amsterdam,Nieuwpoortstraat 94 C 15,52.38431,4.856904,245000,49,172,1,2017,0,appartement,20,1
1097 VD Amsterdam,Middenweg 486,52.3416,4.94918,345000,71,250,3,1906,1,appartement,30,3
1082 HE Amsterdam,Van Nijenrodeweg 364,52.327529999999996,4.8775319999999995,185000,35,90,1,1966,0,appartement,6,2
1062 JV Amsterdam,Postjesweg 453,52.3637,4.836130000000001,175000,70,200,1,1960,0,appartement,7,3
1087 Amsterdam,Sem Presserhof PP Parkeerplaats 145,52.35369,4.999855999999999,21000,0,0,1,0,0,parkeergelegenheid,10,1
1082 PB Amsterdam,Krooswijkhof 108,52.33463,4.88075,400000,78,238,1,1981,1,appartement,20,3
1015 RC Amsterdam,Egelantiersgracht 31 -2,52.37618,4.883068,295000,38,125,4,1906,0,appartement,13,2
1063 HJ Amsterdam,Cornelis de Grootpad 3,52.38279,4.825558999999999,245000,85,280,2,1955,1,woonhuis,22,4
1091 LV Amsterdam,Hofmeyrstraat 7 -hs,52.351729999999996,4.915298,200000,43,105,4,1926,1,appartement,12,2
1012 RK Amsterdam,Nieuwezijds Voorburgwal 169 D,52.3723,4.89095,550000,89,310,2,1906,0,appartement,36,4
1011 TT Amsterdam,Rapenburg 3 III-B,52.371970000000005,4.907479,325000,65,157,1,1850,0,appartement,22,1
1074 EB Amsterdam,Ceintuurbaan 428 - II,52.35503,4.902463,349000,53,145,4,1906,0,appartement,22,3
1058 GA Amsterdam,Saskia van Uijlenburgkade 57,52.35635,4.8450690000000005,750000,120,313,1,2010,1,appartement,32,5
1012 RN Amsterdam,Wijdesteeg 3 L,52.37153,4.889751,604840,69,225,4,1906,0,appartement,26,2
1018 GP Amsterdam,Sarphatistraat 62 D,52.36121,4.90899,599000,80,250,1,2000,0,appartement,27,2
1102 VA Amsterdam,Barbusselaan 266,52.3194,4.944952,119000,43,134,1,1985,0,appartement,13,2
1086 ZR Amsterdam,Zeeburgerbaai bwnr. 7 (Bouwnr. 0),52.36073,4.98065,700000,155,589,3,2017,1,woonhuis,7,5
1066 PW Amsterdam,Kempenlaan 19,52.345240000000004,4.807022,585000,170,340,6,1994,0,appartement,24,4
1055 TK Amsterdam,Bestevâerstraat 159 III,52.37788,4.858435,492000,92,309,5,1906,1,appartement,23,4
1024 XR Amsterdam,Dijkmanshuizenstraat 130,52.39672,4.959264,275000,80,315,1,2011,1,appartement,34,3
1063 BK Amsterdam,Burgemeester De Vlugtlaan 177,52.381879999999995,4.818128,29500,0,0,1,0,0,parkeergelegenheid,1,1
1107 PS Amsterdam,Tongerenstraat 68,52.293929999999996,4.968832,255000,119,395,3,1983,1,woonhuis,21,5
1023 NM Amsterdam,Schellingwouderdijk 372 c,52.38126,4.966081,179511,68,230,1,1900,0,woonhuis,27,4
1102 CD Amsterdam,Hoogoord 86,52.31232,4.9537629999999995,169500,94,248,1,1969,0,appartement,11,4
1066 TC Amsterdam,Kortrijk 56,52.34362,4.8021709999999995,625000,150,450,3,1995,1,woonhuis,34,5
1059 XH Amsterdam,Piet Gijzenbrugstraat 6 -1,52.35083,4.846707,275000,52,254,1,1933,0,appartement,19,2
1055 RZ Amsterdam,Nieuwpoortstraat 86 A 21,52.38425,4.857436,265000,49,172,1,2017,0,appartement,20,2
1061 CC Amsterdam,Ernest Staesstraat 45 I,52.37676,4.839608999999999,308000,80,198,2,1945,1,appartement,8,6
1055 EK Amsterdam,Bos en Lommerplein 42,52.37834,4.8468290000000005,315000,80,210,2,2003,0,appartement,19,3
1091 ER Amsterdam,Weesperzijde 127 4,52.350120000000004,4.91246,899000,110,320,1,1913,0,appartement,38,3
1058 VA Amsterdam,Theophile de Bockstraat 73 -3,52.35475,4.847437,299000,61,207,1,1906,0,appartement,29,3
1051 NH Amsterdam,Marcantilaan 336,52.37395,4.867353,225000,41,127,5,1984,0,appartement,22,2
1074 XN Amsterdam,Tweede Jan van der Heijdenstraat 49 1,52.35575,4.901269,375000,72,187,1,1930,0,appartement,1,4
1015 GB Amsterdam,Brouwersgracht 35 -B,52.37916,4.8911430000000005,825000,105,341,3,1625,1,appartement,35,5
1023 EL Amsterdam,Monnikendammerplantsoen 5,52.38816,4.949975,250000,61,180,2,1931,1,woonhuis,50,4
1073 VA Amsterdam,Sint Willibrordusstraat 75 3,52.35403,4.9010940000000005,275000,43,132,1,1903,0,appartement,29,2
1074 TV Amsterdam,Lutmastraat 191,52.3518,4.90365,55000,0,0,1,0,0,parkeergelegenheid,3,1
1068 DA Amsterdam,Ruimzicht 311,52.3618,4.80995,325000,88,267,1,1960,0,appartement,23,4
1078 AZ Amsterdam,Amstelkade 169 A-1,52.34803,4.888612,425000,81,273,1,1936,0,appartement,17,4
1082 TN Amsterdam,Frieslandstraat 167,52.3334,4.87611,199500,46,140,1,1963,1,appartement,16,2
1017 ZT Amsterdam,Nicolaas Witsenkade 31 H*,52.358290000000004,4.896397,700000,105,342,1,1892,0,appartement,28,3
1051 BW Amsterdam,Van Hogendorpstraat 142 III,52.382870000000004,4.871949,425000,77,210,2,1911,0,appartement,23,3
1021 HL Amsterdam,Fazantenweg 67,52.38763,4.921347,235000,67,198,1,1990,0,appartement,20,3
1025 DS Amsterdam,H. Cleyndertweg 423,52.4028,4.93692,30000,0,0,1,0,0,parkeergelegenheid,1,1
1071 RT Amsterdam,Frans van Mierisstraat 24 H,52.3548,4.882965,1295000,173,595,5,1905,1,appartement,40,6
1060 LX Amsterdam,Cycladenlaan 68 .,52.34625,4.790261,545000,0,0,1,0,0,,1,1
1091 GT Amsterdam,Eerste Oosterparkstraat 35 I,52.35593,4.908487,295000,53,168,1,1906,0,appartement,21,3
1092 TG Amsterdam,Vrolikstraat 431 B,52.35778,4.923133999999999,485000,99,278,5,1998,0,appartement,16,3
1033 XE Amsterdam,Eenhoornhof 4 H,52.41559,4.878018,150000,43,165,1,1945,1,appartement,20,2
1034 LH Amsterdam,Bramzeilhof 32,52.40838,4.921385,187500,75,245,1,1976,1,appartement,24,3
1016 GX Amsterdam,Prinsengracht 309 /pp,52.373259999999995,4.883364,75000,0,0,1,0,0,parkeergelegenheid,1,1
1025 HT Amsterdam,Het Breed 529,52.3967,4.9393,275000,100,314,17,1968,0,appartement,27,3
1056 PJ Amsterdam,Orteliusstraat 240 -2,52.37135,4.8487029999999995,250000,51,166,1,1935,0,appartement,14,3
1072 SG Amsterdam,Karel du Jardinstraat 33 IV,52.351290000000006,4.893815,1295000,193,1000,4,1906,0,appartement,12,4
1011 TZ Amsterdam,Rapenburg 78,52.3709,4.90911,399000,58,135,1,1906,0,appartement,17,2
1096 DT Amsterdam,STATE Amsterdam (Bouwnr. 302),52.33965,4.9245220000000005,1378018,220,550,1,2017,0,appartement,1,5
1087 CL Amsterdam,IJburglaan 831,52.35672,4.993089,299000,0,0,1,0,0,,1,1
1069 SC Amsterdam,Pieter Calandlaan 1049,52.351440000000004,4.798222,275000,103,268,1,2006,0,appartement,25,3
1016 ES Amsterdam,Huidenstraat 10 A,52.36887,4.885914,750000,135,424,3,1906,0,appartement,26,4
1055 PS Amsterdam,Haarlemmerweg 651 HS,52.3847,4.8480550000000004,299000,64,230,1,1934,1,appartement,16,3
1055 PH Amsterdam,Van Gentstraat 38 -1,52.38409,4.851780000000001,225000,49,153,1,1938,0,appartement,17,3
1011 MH Amsterdam,Valkenburgerstraat 151,52.36922,4.906581,350000,70,206,1,1998,0,appartement,22,3
1082 VW Amsterdam,Wijenburg 84,52.33232,4.871817,275000,77,200,1,1963,0,appartement,17,4
1077 LX Amsterdam,Albrecht Dürerstraat 41 II,52.34779,4.87614,1200000,193,637,3,1930,1,appartement,26,8
1078 HZ Amsterdam,Deurloostraat 10 -I,52.34632,4.894164,440000,86,232,1,1906,0,appartement,32,3
1012 GL Amsterdam,Oudezijds Voorburgwal 310 A,52.37,4.8941300000000005,515000,75,272,1,1906,0,appartement,20,2
1056 BK Amsterdam,Jan van Galenstraat 111 B,52.37465,4.859486,299000,71,222,1,1923,0,appartement,20,2
1067 TC Amsterdam,Osdorperweg 824 D,52.37635,4.768248000000001,449000,163,473,3,1998,1,woonhuis,19,6
1091 MS Amsterdam,Ruyschstraat 357,52.358670000000004,4.914244,325000,57,179,1,1900,0,appartement,30,3
1103 JW Amsterdam,Bijlmerdreef 1218,52.32242,4.971878,175000,79,233,1,2001,0,appartement,10,3
1012 NC Amsterdam,Sint Jacobsstraat 5 A,52.37643,4.895555,329000,62,170,1,1991,0,appartement,20,3
1011 AN Amsterdam,Prins Hendrikkade 127 F,52.373999999999995,4.90511,625000,119,295,2,1906,0,appartement,35,5
1064 MN Amsterdam,Nannie van Wehlstraat 3,52.37999,4.810077,250000,88,320,1,1988,0,woonhuis,1,3
1052 LP Amsterdam,Hugo de Grootkade 8 A2,52.37345,4.874347,239000,41,135,1,1890,0,appartement,23,1
1053 DD Amsterdam,Kinkerstraat 43 II-voor,52.3677,4.874251,199000,30,90,5,1886,0,appartement,27,2
1058 KJ Amsterdam,Haarlemmermeerstraat 146 I,52.35246,4.850154,325000,55,180,1,1930,0,appartement,15,3
1060 PJ Amsterdam,Ladogameerhof 84,52.35085,4.781172,249000,83,225,4,1999,0,appartement,13,3
1025 WB Amsterdam,Buiksloterdijk 146,52.395759999999996,4.923662,1200000,182,627,3,1892,1,woonhuis,66,6
1024 EZ Amsterdam,Grootslagstraat 29,52.39875,4.9562029999999995,300000,90,257,1,2008,0,woonhuis,1,4
1066 GE Amsterdam,Duke Ellingtonstraat 50,52.34383,4.826892,260000,80,244,1,1991,0,appartement,25,3
1066 KG Amsterdam,Diepenbeekplantsoen 67,52.34792,4.818872,359000,135,365,3,1991,1,woonhuis,26,6
1061 BV Amsterdam,Blauwvoetstraat 16 III,52.37669,4.839492,201500,51,140,1,1952,0,appartement,18,3
1075 BH Amsterdam,Valeriusplein 14 A,52.352340000000005,4.863517,1450000,138,491,2,1906,1,appartement,38,5
1025 CW Amsterdam,Dijkwater 239,52.40113,4.93649,199000,66,207,1,1980,0,appartement,25,2
1068 MK Amsterdam,Osdorper Ban 90 A8,52.36201,4.7987400000000004,199500,78,235,1,2003,0,appartement,14,2
1072 HM Amsterdam,Dusartstraat 25 hs,52.35205,4.889476999999999,385000,63,266,1,1991,0,appartement,20,2
1016 AD Amsterdam,Singel 286 D,52.371990000000004,4.888037000000001,539000,91,276,3,1906,1,appartement,31,3
1033 LB Amsterdam,Mandarijnenstraat 47,52.40961,4.898251,240000,70,255,2,1952,1,woonhuis,29,3
1011 KB Amsterdam,Kloveniersburgwal 93 -C,52.3692,4.897463,650000,111,285,2,1825,0,appartement,26,3
1054 ES Amsterdam,Stadhouderskade 21 D,52.36203,4.880659,895000,142,464,2,1991,0,appartement,40,3
1102 ZR Amsterdam,Dantestraat 160,52.32569,4.9493279999999995,96000,34,106,1,1984,0,appartement,15,1
1087 BC Amsterdam,Johan van der Keukenstraat 113,52.36003,4.990108,495000,148,543,3,2001,1,woonhuis,39,6
1013 BH Amsterdam,Westerdok 362,52.38473,4.891712999999999,1050000,147,540,3,2008,0,appartement,45,5
1011 MR Amsterdam,Koerierstersplein 6,52.3693,4.907488,339500,67,206,1,1998,0,appartement,15,3
1095 MS Amsterdam,Zeeburger Zilt 2 (Bouwnr. 104),52.37195,4.965528,366963,92,230,1,2011,0,appartement,7,3
1015 XD Amsterdam,Westerkade 10 1 l,52.37621,4.877959,170000,22,50,5,1930,0,appartement,16,1
1064 EE Amsterdam,Burgemeester Hogguerstraat 969,52.37345,4.828092,189000,0,0,1,0,0,,1,1
1075 EW Amsterdam,Valeriusstraat 177 II,52.35203,4.861193,495000,60,222,1,1906,0,appartement,23,2
1051 KP Amsterdam,Haarlemmerweg 43 3,52.3854,4.877528,339000,77,249,2,1886,0,appartement,22,3
1011 BW Amsterdam,Kromme Waal 35 -2,52.37384,4.90276,600000,96,260,1,1906,0,appartement,39,3
1019 HR Amsterdam,Zeeburgerkade 524,52.36922,4.944012,420000,112,419,2,1898,0,appartement,44,4
1013 PL Amsterdam,Van Linschotenstraat 45,52.38922,4.887444,175000,37,120,4,1905,0,appartement,18,2
1074 JH Amsterdam,Amsteldijk 728 A,52.351859999999995,4.909115,1400000,220,900,2,2011,1,woonhuis,40,5
1063 LK Amsterdam,Willem Molengraaffstraat 18 1,52.38394,4.813375,175000,62,205,1,1955,0,appartement,26,3
1011 NX Amsterdam,Waterlooplein 29 A+D,52.36891,4.901343,1195000,225,692,2,1997,0,appartement,30,6
1053 WX Amsterdam,Da Costakade 175 2A,52.36744,4.874265,215000,28,68,1,2011,0,appartement,19,2
1094 GB Amsterdam,Celebesstraat 142,52.35836,4.936630999999999,325000,77,228,1,1998,0,appartement,15,3
1017 RL Amsterdam,Lijnbaansgracht 270 B,52.36229,4.885927,335000,50,163,1,1892,0,appartement,19,2
1103 SK Amsterdam,Glitterstraat 104,52.321870000000004,4.979258,179500,79,248,1,2007,0,appartement,17,3
1035 NX Amsterdam,Hendrik Soeteboomstraat 12,52.417790000000004,4.896294,550000,118,391,2,1930,1,woonhuis,30,4
1017 NM Amsterdam,Lange Leidsedwarsstraat 60 A,52.36489,4.883069,239000,46,120,1,1978,0,appartement,18,2
1022 KK Amsterdam,H. Stolleplantsoen 4,52.40815,4.933568,499000,180,636,4,2009,1,woonhuis,32,6
1073 AT Amsterdam,Stadhouderskade 83 B,52.35777,4.8932910000000005,355000,62,230,1,1906,0,appartement,16,3
1053 HB Amsterdam,Jacob van Lennepstraat 31 -III-A,52.36667,4.875056,225000,34,103,1,1906,0,appartement,13,2
1055 ZT Amsterdam,Solebaystraat 82 -I,52.38423,4.854642,200000,50,161,1,1934,0,appartement,23,3
1097 WL Amsterdam,Veeteeltstraat 9 a,52.341840000000005,4.948482,249009,62,174,1,1925,1,appartement,27,3
1107 RC Amsterdam,Tielstraat 113,52.29197,4.9690959999999995,171000,0,0,1,0,0,,1,1
1055 RZ Amsterdam,Nieuwpoortstraat 94 C12,52.38431,4.857044999999999,245000,49,173,1,2017,1,appartement,20,2
1016 AE Amsterdam,Singel 326 -328,52.37082,4.887798,2150000,276,833,2,1906,0,appartement,35,5
1071 KL Amsterdam,Jacob Obrechtstraat 14 I,52.3567,4.87469,795000,111,301,2,1898,1,appartement,34,3
1092 CB Amsterdam,Eikenweg 72 III,52.35715,4.922067,175000,31,105,1,1906,0,appartement,14,2
1035 PW Amsterdam,Landsmeerderdijk 14,52.415820000000004,4.89858,899000,173,527,2,1915,1,woonhuis,38,6
1024 EW Amsterdam,Waalenburgsingel 280,52.39545,4.96016,175000,75,197,1,1960,0,appartement,22,3
1018 XE Amsterdam,Valckenierstraat 43 III,52.36227,4.910474,325000,58,181,1,1906,0,appartement,29,2
1086 ZJ Amsterdam,IJburglaan 161,52.36308,4.981378,310000,91,235,1,2008,0,appartement,29,2
1016 SG Amsterdam,Elandsstraat 28,52.37075,4.88134,650000,125,434,1,1906,0,appartement,22,3
1067 MX Amsterdam,Troelstralaan 255 B,52.37362,4.800999,189000,45,120,4,2016,0,appartement,20,3
1102 JD Amsterdam,Huntum 56 D,52.30713,4.963279,450000,0,0,1,0,0,,1,1
1058 EC Amsterdam,Nachtwachtlaan 108,52.36104,4.843311,350000,98,250,1,1968,0,appartement,14,3
1028 AZ Amsterdam,Poppendammergouw 32,52.41963,5.024254,1975000,374,1048,2,1910,1,woonhuis,57,7
1011 CP Amsterdam,Nieuwe Ridderstraat 8 *,52.373509999999996,4.901854,815000,130,351,3,1906,0,appartement,10,4
1067 PV Amsterdam,De Savornin Lohmanstraat 571,52.37542,4.798,200000,47,160,1,2011,1,appartement,29,1
1019 PG Amsterdam,Bogortuin 72 Javakd,52.37751,4.933223,535000,103,328,1,2001,0,appartement,24,3
1033 BH Amsterdam,Kometensingel 299,52.41571,4.881989,300000,113,425,2,1923,1,woonhuis,36,5
1072 VZ Amsterdam,Daniël Stalpertstraat 19 2 hg,52.35644,4.88793,275000,43,137,5,1906,0,appartement,14,2
1056 PM Amsterdam,Orteliusstraat 278 IV,52.37234,4.848195,285000,48,154,4,1931,1,appartement,23,2
1087 EM Amsterdam,IJburglaan 828,52.35539,4.994276999999999,335000,96,291,1,2003,0,appartement,25,3
1096 AK Amsterdam,State Amsterdam,52.339529999999996,4.926469,3049915,488,1269,1,2019,0,appartement,7,7
1055 NR Amsterdam,Gibraltarstraat 60 HS,52.38384,4.850696,250000,71,185,4,1936,1,appartement,25,3
1035 LB Amsterdam,Sandwijk 20,52.42127,4.896449,339011,116,318,3,1994,1,woonhuis,31,4
1093 EE Amsterdam,Linnaeusstraat 33 A,52.36224,4.924304,335000,76,240,1,1985,0,appartement,22,3
1053 KB Amsterdam,Jacob van Lennepstraat 250 a,52.36399,4.864032,469000,73,200,1,1905,0,appartement,19,3
1060 NT Amsterdam,Brenner 51 .,52.35135,4.774473,400000,0,0,1,0,0,,1,1
1066 Amsterdam,Duke Ellingtonstraat,52.35026,4.829307,17500,0,0,1,0,0,parkeergelegenheid,1,1
1081 ER Amsterdam,Bolestein 772,52.324220000000004,4.859325,350000,91,288,1,1968,0,appartement,22,3
1035 XD Amsterdam,Stentorstraat 77 hs,52.419509999999995,4.900258999999999,210011,66,220,2,1955,1,appartement,25,3
1051 VB Amsterdam,Van der Hoopstraat 43 II,52.38435,4.874,375000,75,252,1,1906,0,appartement,19,3
1095 DK Amsterdam,Insulindeweg 792,52.361999999999995,4.944143,200000,56,167,1,1988,0,appartement,30,2
1019 RM Amsterdam,Sumatrakade 1319,52.3796,4.92511,32500,0,0,1,0,0,parkeergelegenheid,5,1
1071 XN Amsterdam,Hobbemakade 78 HS,52.35301,4.8860339999999995,350000,54,263,1,1905,1,appartement,25,2
1056 RL Amsterdam,Shackletonstraat 3 III,52.37272,4.852387,260000,72,229,1,1926,0,appartement,16,3
1055 RZ Amsterdam,Nieuwpoortstraat 94 A14,52.38425,4.856787000000001,240000,48,170,1,2017,1,appartement,20,2
1055 NR Amsterdam,Gibraltarstraat 66 HS,52.38413,4.850017,325000,77,220,1,1936,1,appartement,22,3
1098 JK Amsterdam,Archimedesweg 17 hs,52.3569,4.937632,799000,181,574,2,1901,1,appartement,26,7
1094 GR Amsterdam,Madurastraat 70 II,52.36422,4.934501,250000,50,166,1,1906,0,appartement,20,2
1032 CC Amsterdam,Hazelaarstraat 59,52.39513,4.916746,235000,55,200,2,1931,1,woonhuis,27,3
1075 HV Amsterdam,Emmastraat 24,52.35348,4.869176,3250000,349,1347,5,1906,1,woonhuis,59,8
1028 AX Amsterdam,Nieuwe Gouw,52.39968,4.982696,650000,0,0,1,0,0,object,1,1
1019 PW Amsterdam,Majanggracht 17,52.3783,4.93015,898000,210,550,5,2000,1,woonhuis,11,8
1068 GL Amsterdam,Martini van Geffenstraat 130,52.35785,4.803331,299000,130,335,2,2002,0,appartement,15,4
1056 KN Amsterdam,Geuzenkade 56 III,52.37344,4.864376,245000,52,173,1,1934,0,appartement,19,3
1091 TM Amsterdam,Overamstelstraat 125,52.35065,4.913874,275000,55,162,1,1993,0,appartement,46,3
1056 PW Amsterdam,Mercatorstraat 5 hs,52.37062,4.850855999999999,450000,86,273,1,1926,1,appartement,26,3
1079 JP Amsterdam,Vechtstraat 122 -II,52.34319,4.907233,300000,51,136,1,1934,0,appartement,13,3
1069 GA Amsterdam,Osdorper Ban 577,52.36055,4.794693,250000,92,270,1,2006,0,appartement,23,3
1072 HV Amsterdam,Dusartstraat 62 hs,52.3508,4.888745,945000,147,309,2,1906,1,appartement,35,6
1016 HR Amsterdam,Prinsengracht 495 II,52.36939,4.883013,975000,175,610,1,1880,0,appartement,25,5
1063 ER Amsterdam,Coronelstraat 21,52.384190000000004,4.8302190000000005,299000,85,265,2,1954,1,woonhuis,20,4
1061 BV Amsterdam,Blauwvoetstraat 12 hs,52.37655,4.839449,317500,79,213,2,1952,1,appartement,12,5
1063 NV Amsterdam,Burgemeester Van Leeuwenlaan 156,52.38159,4.813935,299000,103,303,3,1954,1,woonhuis,26,4
1067 XW Amsterdam,Burgemeester Röellstraat 606,52.37737,4.804601,215000,89,225,1,2004,0,appartement,26,3
1013 AK Amsterdam,Bouwnummer 114 (Bouwnr. 114),52.39695,4.881737,759000,168,681,4,2019,1,woonhuis,1,4
1025 AL Amsterdam,Elpermeer 132,52.40169,4.94918,30000,0,0,1,0,0,parkeergelegenheid,3,1
1055 CE Amsterdam,Esmoreitstraat 20 3,52.37721,4.851968,245000,55,180,2,1931,0,appartement,22,6
1015 XD Amsterdam,Westerkade 11 -C,52.376129999999996,4.877899,185500,25,77,1,1906,0,appartement,9,2
1102 ST Amsterdam,Anna Blamansingel 64,52.31624,4.9464879999999996,245000,102,286,1,2006,0,appartement,24,3
1054 VM Amsterdam,Staringstraat 5 L,52.36213,4.862439,375000,71,174,1,1990,0,appartement,25,3
1096 GJ Amsterdam,Welnastraat 321,52.33883,4.920624,159511,28,96,1,2015,0,appartement,24,1
1058 EM Amsterdam,Nachtwachtlaan 343,52.36295,4.84399,315000,98,250,1,1968,0,appartement,16,3
1087 AW Amsterdam,Johan van der Keukenstraat,52.35964,4.991691,14000,0,0,1,0,0,parkeergelegenheid,4,1
1053 ED Amsterdam,Kinkerstraat 112 1,52.36684,4.870297,199000,30,97,1,1906,0,appartement,15,2
1066 ER Amsterdam,Akersluis 11,52.34259,4.7924690000000005,589000,0,0,1,0,0,,1,1
1102 AC Amsterdam,Bijlmerdreef 538,52.31745,4.956918,250000,94,270,1,2007,0,appartement,29,3
1060 RX Amsterdam,Valutaboulevard 55,52.347970000000004,4.7896529999999995,450000,167,500,4,1998,1,woonhuis,24,5
1060 RX Amsterdam,Valutaboulevard 14,52.34815,4.787782,375000,141,409,4,1999,1,woonhuis,19,5
1058 TP Amsterdam,Westlandgracht 83 -2,52.353,4.846152,269500,55,181,1,1934,0,appartement,19,3
1081 KS Amsterdam,Schokkerspad 36,52.33106,4.855767,1350000,192,564,6,1991,0,appartement,33,5
1058 ST Amsterdam,Vogelenzangstraat 24 hs,52.35443,4.848292,325000,46,176,3,1931,1,appartement,29,3
1054 JZ Amsterdam,Overtoom 480 I,52.35933,4.8607569999999996,549000,93,307,5,1906,0,appartement,34,3
1061 TJ Amsterdam,Willy Sluiterstraat 104,52.36528,4.84172,360000,90,283,6,2013,0,appartement,23,4
1013 SJ Amsterdam,Wormerveerstraat 7 -HS R,52.38897,4.876869999999999,225000,38,135,1,1916,1,appartement,25,2
1071 CC Amsterdam,Pieter Cornelisz. Hooftstraat 90 II,52.3602,4.880108,895000,105,401,2,1906,0,appartement,26,2
1013 AK Amsterdam,Bouwnummer 116 (Bouwnr. 116),52.39695,4.881737,1107250,219,953,3,2019,1,woonhuis,2,3
1079 BN Amsterdam,Uiterwaardenstraat 9 -III,52.34213,4.9113940000000005,369000,56,177,1,1934,1,appartement,28,3
1053 SV Amsterdam,Jan Hanzenstraat 108 /III,52.36775,4.864326,185000,30,93,3,1906,0,appartement,22,1
1031 KB Amsterdam,Spadinalaan 64,52.38641,4.900607,519500,87,295,1,2010,0,appartement,16,2
1071 VN Amsterdam,Cornelis Anthoniszstraat 11 II,52.35349,4.883309,395000,53,175,1,1899,0,appartement,21,3
1107 VE Amsterdam,Snodenhoekpark 2,52.29095,4.974075,235000,104,337,2,1981,1,woonhuis,23,4
1012 RN Amsterdam,Wijdesteeg 3 K,52.37153,4.889751,604840,77,250,4,1906,0,appartement,25,2
1019 TB Amsterdam,J.F. van Hengelstraat 37,52.3744,4.94739,475000,101,318,2,1998,1,appartement,36,4
1013 LM Amsterdam,Prinseneiland 93 *,52.38535,4.886653,2850000,660,2000,5,1906,0,woonhuis,40,14
1051 GJ Amsterdam,Bentinckstraat 97 2,52.38304,4.871274,225000,38,128,1,1906,0,appartement,26,2
1013 PD Amsterdam,Dirk Hartoghstraat 83,52.389509999999994,4.885681,225000,47,151,5,1879,0,appartement,24,2
1071 LD Amsterdam,Palestrinastraat 15 BOVEN,52.356190000000005,4.876546,1100000,164,575,2,1906,1,appartement,41,4
1051 TZ Amsterdam,Joan Melchior Kemperstraat 138 -3,52.3848,4.870602,500000,106,300,2,1906,0,appartement,25,4
1074 EJ Amsterdam,Kuipersstraat 81,52.35354,4.903076,625000,97,358,1,1936,1,appartement,14,3
1078 AC Amsterdam,Amstelkade 19 I,52.34904,4.906286,350000,63,168,1,1922,0,appartement,32,3
1087 EN Amsterdam,IJburglaan 991,52.35606,4.994267,325000,95,330,1,2007,0,appartement,29,5
1018 TT Amsterdam,Plantage Muidergracht 151 hs,52.36385,4.917235,1450000,202,600,2,1890,1,appartement,20,6
1018 AV Amsterdam,Sarphatistraat 562,52.364329999999995,4.9207730000000005,545000,78,283,1,1906,1,appartement,13,3
1059 AB Amsterdam,Aalsmeerweg 29 -hs,52.35009,4.849695,895000,150,487,1,1928,1,appartement,37,5
1066 SL Amsterdam,Berlaarstraat 64,52.3455,4.80184,315000,100,300,2,1994,1,woonhuis,27,4
1024 AK Amsterdam,Jisperveldstraat 183,52.398379999999996,4.949818,35000,0,0,1,0,0,parkeergelegenheid,7,1
1102 XH Amsterdam,Charlotte Brontéstraat 138,52.32488,4.947121,175000,73,232,1,1983,0,appartement,17,3
1019 LG Amsterdam,KNSM-laan 461,52.37737,4.941651,500000,101,305,1,1996,0,appartement,44,4
1017 JH Amsterdam,Prinsengracht 1099 hs,52.362629999999996,4.900472,2180000,238,742,3,1688,1,appartement,48,6
1066 NV Amsterdam,Turnhoutplantsoen 60,52.34763,4.808206,339000,113,328,3,1992,1,woonhuis,24,5
1094 GC Amsterdam,Madurastraat 5 -C,52.36423,4.931785,250000,54,150,5,1985,0,appartement,16,3
1066 DJ Amsterdam,Ringvaartdijk 94,52.33334,4.802711,579000,0,0,1,0,0,,1,1
1025 CW Amsterdam,Dijkwater 207,52.40099,4.9368620000000005,189000,0,0,1,0,0,,1,1
1097 PS Amsterdam,Fahrenheitstraat 40,52.34308,4.924283,700000,152,529,3,1905,1,woonhuis,29,8
1094 EM Amsterdam,Celebesstraat 33 I,52.36396,4.931608,275000,61,213,5,1906,0,appartement,17,2
1087 GZ Amsterdam,Sanne Sanneshof 4,52.35611,4.997262999999999,279000,76,197,1,2004,0,appartement,17,3
1072 RA Amsterdam,Avercampstraat 29,52.35038,4.893105,290000,43,115,5,1986,0,appartement,10,2
1079 LL Amsterdam,Amsteldijk 280,52.3342,4.9017800000000005,2000000,400,1200,1,2017,1,woonhuis,11,8
1052 XX Amsterdam,Frederik Hendrikplantsoen 86 -3,52.37952,4.87516,850000,182,640,2,1906,0,appartement,34,8
1011 CP Amsterdam,Nieuwe Ridderstraat 12,52.37341,4.902033,750000,121,327,3,1906,0,woonhuis,10,4
1055 BA Amsterdam,Lanseloetstraat 3 -I,52.37639,4.849978,225000,56,190,1,1931,0,appartement,29,3
1097 ZK Amsterdam,Onderlangs 28,52.33937,4.947465,235000,52,156,1,1906,1,appartement,27,3
1017 JZ Amsterdam,Prinsengracht 763,52.363459999999996,4.887354,2550000,172,516,1,1960,0,appartement,14,3
1077 VD Amsterdam,Holbeinstraat 2 2,52.34649,4.875186,1395000,210,681,3,1932,0,appartement,37,5
1018 NX Amsterdam,Czaar Peterstraat 37 E,52.36878,4.927054,175000,29,75,4,1971,0,appartement,23,1
1063 ZK Amsterdam,Lex Althoffstraat 3 3,52.37952,4.830055000000001,199000,62,216,5,1953,0,appartement,18,2
1033 ZT Amsterdam,Mandenmakerspad 1,52.41868,4.884087999999999,300000,98,324,3,1989,1,woonhuis,23,4
1012 ZK Amsterdam,Blaeustraat 7,52.37443,4.891987,350000,56,136,1,1990,1,appartement,17,2
1069 TS Amsterdam,Langswater 180,52.35459,4.790407,149500,60,167,13,1965,0,appartement,10,3
1011 MJ Amsterdam,Valkenburgerstraat,52.36891,4.905781,50000,0,0,1,0,0,parkeergelegenheid,6,1
1069 EC Amsterdam,Langswater 379,52.35549,4.790136,175000,72,238,1,1969,0,appartement,23,3
1018 BH Amsterdam,Hoogte Kadijk 127 C,52.36847,4.918101,295000,55,171,1,1905,0,appartement,22,2
1013 NE Amsterdam,Westzaanstraat 67 B,52.388059999999996,4.881464,285000,69,220,1,1982,0,appartement,20,3
1076 CK Amsterdam,Stadionplein 89 HS,52.3428,4.857975,650000,157,554,4,1931,0,appartement,29,4
1093 HL Amsterdam,Reinwardtstraat 64,52.36057,4.926083,300000,70,230,1,1987,0,appartement,15,3
1063 GM Amsterdam,Jacob Melkmanstraat 6,52.38228,4.8240989999999995,268800,100,300,1,1945,1,woonhuis,25,4
1015 JP Amsterdam,Goudsbloemstraat 32,52.38098,4.885657,985000,205,645,5,1906,0,woonhuis,31,6
1058 LL Amsterdam,Bennebroekstraat 8 hs,52.35295,4.849,650000,110,336,2,1906,1,appartement,33,4
1060 TV Amsterdam,Pieter Calandlaan 514,52.3495,4.78597,249000,96,300,1,1998,0,appartement,21,4
1018 CT Amsterdam,Henri Polaklaan 40 C*,52.36728,4.911919999999999,2350000,372,800,5,1914,1,appartement,22,10
1012 BG Amsterdam,Molensteeg 16 B+C,52.3735,4.8999440000000005,598000,116,357,3,1906,0,appartement,36,5
1060 ST Amsterdam,Escudolaan 50,52.34492,4.785702,499000,168,605,4,1998,1,woonhuis,36,5
1023 AJ Amsterdam,Schermerstraat 40,52.39288,4.943728,230000,54,235,2,1927,1,woonhuis,29,3
1077 CK Amsterdam,Olympiaplein 23 hs,52.3491,4.867568,1250000,178,458,2,1928,1,appartement,32,6
1086 ZJ Amsterdam,IJburglaan 409,52.36251,4.983274,699000,156,420,3,2010,1,woonhuis,41,5
1102 TH Amsterdam,Boeninlaan 71,52.32053,4.9428279999999996,107000,37,109,1,1984,0,appartement,8,2
1046 Amsterdam,Limmerick Garagebox/Opslag,52.392109999999995,4.78938,16250,0,0,1,0,0,parkeergelegenheid,7,1
1071 MD Amsterdam,Valeriusstraat 41 2,52.35465,4.871027,899000,143,522,2,1906,0,appartement,33,7
1058 CE Amsterdam,Van Walbeeckstraat 5 -hs,52.36,4.850805,335000,73,204,1,1906,1,appartement,18,2
1015 PK Amsterdam,Tuinstraat 226,52.37656,4.879762,975000,126,400,4,1906,1,woonhuis,23,5
1096 AK Amsterdam,State Amsterdam,52.339529999999996,4.926469,340816,64,166,1,2019,0,appartement,6,2
1016 AA Amsterdam,Singel 204 F,52.37402,4.88866,350000,47,150,1,1925,0,appartement,11,1
1055 RZ Amsterdam,Nieuwpoortstraat 86 A8,52.38429,4.8583,410000,83,294,1,2017,0,appartement,20,2
1053 GD Amsterdam,Kinkerstraat 332 II,52.365,4.862887000000001,200000,28,91,1,1899,0,appartement,23,2
1097 HM Amsterdam,Bertrand Russellstraat 110,52.3478,4.92149,395000,104,323,2,1991,0,appartement,19,4
1095 CH Amsterdam,Javaplein 5 II,52.363929999999996,4.939863,225000,46,158,1,1915,0,appartement,13,2
1011 AJ Amsterdam,Prins Hendrikkade 105 -huis,52.37546,4.902857,1195000,219,927,2,1630,1,appartement,26,6
1056 GM Amsterdam,Admiraal De Ruijterweg 66 -1,52.37143,4.860993,350000,76,225,1,1906,0,appartement,16,3
1016 CK Amsterdam,Leidsegracht 2,52.36758,4.8861930000000005,1600000,183,500,5,1906,0,woonhuis,46,6
1011 CP Amsterdam,Nieuwe Ridderstraat 10,52.373470000000005,4.901947,885000,141,381,3,1906,0,woonhuis,12,4
1055 BN Amsterdam,Sanderijnstraat 29 hs,52.3773,4.85042,295000,68,253,4,1931,0,appartement,21,3
1021 NG Amsterdam,Smederij 44,52.381809999999994,4.9146849999999995,175000,42,135,1,1984,0,appartement,35,2
1051 JJ Amsterdam,Schaepmanstraat 244 -1,52.37978,4.868854,215000,38,126,1,1906,0,appartement,12,2
1087 LC Amsterdam,Johan Huijsenstraat 34,52.35068,5.008421,285000,82,261,1,2001,0,appartement,20,3
1011 TC Amsterdam,Prins Hendrikkade 172 H,52.37178,4.909758,850000,147,521,1,1906,0,appartement,22,4
1013 BX Amsterdam,Westerdoksdijk 645,52.38641,4.892558999999999,1200000,145,450,1,2009,0,appartement,29,4
1091 Amsterdam,Marcusstraat,52.361259999999994,4.915127,5000,0,0,1,0,0,parkeergelegenheid,7,1
1095 DW Amsterdam,Th. K. van Lohuizenlaan 232,52.36642,4.946521,325000,76,195,1,2004,0,appartement,26,3
1103 JT Amsterdam,Bijlmerdreef 1022,52.32144,4.968866,184000,114,295,2,2006,0,appartement,19,4
1060 RG Amsterdam,Ladogameerhof 310,52.34942,4.784233,265000,90,335,1,2003,1,appartement,24,3
1051 JC Amsterdam,Schaepmanstraat 3 I,52.37958,4.870901,239000,57,187,1,1937,0,appartement,22,3
1058 GX Amsterdam,Antillenstraat 19 1,52.35929,4.85101,330000,64,190,1,1930,0,appartement,21,2
1052 AA Amsterdam,De Wittenkade 17 2a,52.38478,4.880179,175000,34,90,3,1900,0,appartement,12,2
1087 EK Amsterdam,Maria Austriastraat 83,52.35649,4.995921,265000,79,235,1,2008,0,appartement,25,2
1091 PW Amsterdam,Afrikanerplein 76,52.3525,4.916482,300000,68,225,1,1930,1,appartement,28,3
1082 EC Amsterdam,Kastelenstraat 137 I,52.32582,4.877244,319000,84,278,1,1960,0,appartement,26,4
1012 BS Amsterdam,Bloedstraat 17 B,52.37292,4.8994,265000,44,141,1,2006,0,appartement,28,2
1056 PC Amsterdam,Orteliusstraat 351 2,52.374309999999994,4.846749,589000,112,353,2,1931,0,appartement,43,5
1058 Amsterdam,Saskia van Uijlenburgkade,52.35634,4.845816,42500,0,0,1,0,0,parkeergelegenheid,4,1
1083 GR Amsterdam,Arent Janszoon Ernststraat 97,52.33184,4.888376999999999,390000,111,320,1,1968,0,appartement,18,3
1057 SC Amsterdam,Hudsonstraat 107 II,52.36795,4.852931,250000,49,170,1,1924,0,appartement,28,2
1058 KB Amsterdam,Haarlemmermeerstraat 52 III,52.35638,4.850118,499000,82,264,2,1932,1,appartement,23,4
1073 VR Amsterdam,Nicolaas Berchemstraat 10 -E,52.35707,4.898507,500000,92,298,2,1991,0,appartement,23,4
1094 HN Amsterdam,Javastraat 106,52.363620000000004,4.936756,215000,0,0,1,0,0,,1,1
1013 TC Amsterdam,Spaarndammerstraat 95 I,52.39013,4.878592,230000,45,117,1,1932,0,appartement,23,2
1074 CT Amsterdam,Tweede Jan Steenstraat 106 IV,52.35696,4.903664,450000,74,220,2,1906,0,appartement,23,4
1018 RX Amsterdam,Blankenstraat 167 -1,52.37082,4.931277,190000,32,107,1,1905,0,appartement,17,2
1018 LP Amsterdam,Kleine Wittenburgerstraat,52.37194,4.921604,30000,0,0,1,0,0,parkeergelegenheid,10,1
1097 XJ Amsterdam,Weidestraat 2,52.34158,4.945869999999999,375000,74,227,3,1924,1,appartement,24,3
1056 KV Amsterdam,Korte Geuzenstraat 412,52.37092,4.8649309999999995,175000,31,85,1,1942,0,appartement,16,2
1068 ZV Amsterdam,Landzicht 35,52.36485,4.803637999999999,300000,125,420,2,2001,0,appartement,36,4
1104 ML Amsterdam,Kloekhorststraat 93,52.31732,4.969084,165000,71,245,1,1984,1,appartement,21,3
1064 HB Amsterdam,Slotermeerlaan 22 B,52.37212,4.819567,349000,140,366,3,2000,0,appartement,28,5
1067 MT Amsterdam,Jan van Duivenvoordestraat 13,52.37851,4.802636,239000,92,250,8,2002,0,appartement,31,3
1072 SW Amsterdam,Van Ostadestraat 137 hs,52.35256,4.894171,795000,128,329,2,1906,0,appartement,26,4
1095 KG Amsterdam,Bouwnummer (Bouwnr. 64),52.3695,4.963923,599900,183,475,6,2016,0,appartement,6,4
1055 CB Amsterdam,Esmoreitstraat 43 III,52.37793,4.851182,250000,57,171,1,1931,0,appartement,25,3
1012 VG Amsterdam,Singel 93 hs,52.37604,4.891516,1250000,253,837,2,1899,0,appartement,24,5
1079 VR Amsterdam,Hunzestraat 19 II,52.34451,4.905061,575000,120,398,3,1931,0,appartement,25,4
1013 HE Amsterdam,Brouwersgracht 256 BG,52.38256,4.885333,230000,37,108,1,1906,0,appartement,14,1
1058 DE Amsterdam,Postjeskade 13 -I,52.36376,4.856312,265000,48,126,1,1927,0,appartement,10,3
1055 AR Amsterdam,Griseldestraat 15 I,52.376459999999994,4.848848,259000,51,165,1,1939,1,appartement,16,3
1087 DC Amsterdam,Bernhard Eilershof 16,52.35794,4.993743,569000,151,552,3,2008,1,woonhuis,42,6
1068 PM Amsterdam,Oeverpad 546 *,52.3633,4.80887,495000,154,483,1,2001,0,appartement,32,5
1108 BK Amsterdam,Leerdamhof 121,52.30793,4.975544,225000,111,380,9,1980,0,appartement,26,5
1109 AW Amsterdam,Zomerstraat 20,52.30686,5.018233,259500,93,242,2,1960,1,woonhuis,20,4
1071 DJ Amsterdam,Museumplein 7 /I,52.35747,4.883339,2600000,234,800,2,1945,1,appartement,30,8
1071 NC Amsterdam,Johannes Verhulststraat 10 BOVEN,52.35586,4.876913,899000,136,476,3,1897,1,appartement,29,8
1016 SZ Amsterdam,Rozengracht 234 C,52.37219,4.874978,375000,68,221,1,1894,0,appartement,33,3
1091 TP Amsterdam,Overamstelstraat 24 II-A,52.35028,4.913584999999999,250000,47,150,3,1911,0,appartement,26,2
1083 GR Amsterdam,Arent Janszoon Ernststraat 87,52.3318,4.888694,385000,111,320,1,1968,0,appartement,17,3
1092 HA Amsterdam,Transvaalstraat 17 III,52.35543,4.9271139999999995,319500,50,161,2,1913,0,appartement,19,2
1051 MC Amsterdam,Donker Curtiusstraat 53,52.37838,4.871338,275000,60,152,1,1998,0,appartement,24,2
1056 XG Amsterdam,Jan Haringstraat 17 A-1,52.37669,4.8607569999999996,289000,52,182,1,1939,0,appartement,21,4
1051 EP Amsterdam,Groen van Prinstererstraat 66 II,52.38264,4.872375,189000,37,124,1,1906,0,appartement,20,1
1052 XZ Amsterdam,Frederik Hendrikplantsoen 100 hs,52.3787,4.875093,375000,70,215,1,1906,1,appartement,23,3
1074 BM Amsterdam,Hemonystraat 35 II,52.35692,4.902722,399000,65,209,1,1882,0,appartement,13,3
1068 DA Amsterdam,Ruimzicht 316,52.3618,4.80995,275000,92,238,1,1960,0,appartement,19,3
1015 PC Amsterdam,Tuinstraat 189,52.37647,4.879892,975000,134,417,4,1906,1,woonhuis,29,6
1019 PG Amsterdam,Bogortuin 42 M73,52.37767,4.933571,27500,0,0,1,0,0,parkeergelegenheid,4,1
1019 HD Amsterdam,Veembroederhof 81,52.376670000000004,4.922804,480000,114,330,1,2006,0,appartement,29,4
1033 CN Amsterdam,Spicastraat 3,52.4149,4.89076,225000,65,205,2,1927,1,woonhuis,19,3
1095 GH Amsterdam,Mataramstraat 15,52.3612,4.945075,225000,62,186,1,1982,1,appartement,16,2
1060 PL Amsterdam,Lomondlaan 55,52.34932,4.7809610000000005,349000,123,407,3,1998,1,woonhuis,29,5
1102 TE Amsterdam,Boris Pasternakstraat 439,52.317440000000005,4.943968,148500,60,185,1,1984,0,appartement,18,3
1067 TL Amsterdam,Raasdorperweg 80,52.3731,4.760926,0,133,420,2,1979,1,woonhuis,13,5
1067 XW Amsterdam,Burgemeester Röellstraat 596,52.37737,4.804587000000001,215000,0,0,1,0,0,,1,1
1073 TW Amsterdam,Van Ostadestraat 296 hs,52.35335,4.89984,850000,132,498,1,1906,1,appartement,33,4
1015 ND Amsterdam,Anjeliersstraat 45,52.37798,4.8848720000000005,200000,30,70,1,2011,0,appartement,18,1
1071 VA Amsterdam,Balthasar Floriszstraat 39 -1,52.35333,4.885191000000001,339000,52,150,1,1906,0,appartement,16,2
1082 HG Amsterdam,Van Nijenrodeweg 385,52.327529999999996,4.877694,169011,34,111,1,1966,0,appartement,24,2
1058 NC Amsterdam,Legmeerstraat 65 I,52.35188,4.851582,275000,51,172,1,1930,0,appartement,21,2
1095 AT Amsterdam,Molukkenstraat 37 3,52.36481,4.939736,429000,78,250,4,1925,0,appartement,20,3
1016 CR Amsterdam,Leidsegracht 78 /hs,52.36606,4.881880000000001,1750000,240,700,6,1906,1,appartement,60,6
1016 AT Amsterdam,Dubbeleworststeeg 2,52.36838,4.887253,1850000,325,910,4,1640,0,woonhuis,68,7
1079 WP Amsterdam,Kribbestraat 55 II,52.34095,4.903967,625000,110,338,2,1935,0,appartement,32,4
1016 EJ Amsterdam,Keizersgracht 365 E,52.368590000000005,4.8849160000000005,1000000,140,557,1,1725,0,appartement,14,3
1058 EM Amsterdam,Nachtwachtlaan 332,52.3631,4.843961,350000,98,250,1,1968,0,appartement,12,3
1052 JX Amsterdam,Van Oldenbarneveldtstraat 87 III,52.37458,4.87429,650000,118,412,2,1882,0,appartement,27,4
1069 EC Amsterdam,Langswater 366,52.35552,4.790227,175000,74,240,1,1963,0,appartement,26,3
1096 DS Amsterdam,STATE Amsterdam (Bouwnr. 305),52.33965,4.9245220000000005,3049915,488,1220,1,2016,0,appartement,4,7
1055 RZ Amsterdam,Nieuwpoortstraat 86 A 6,52.38432,4.8583,300000,62,216,1,2017,1,appartement,20,2
1079 BN Amsterdam,Uiterwaardenstraat 9 -I,52.34213,4.9113940000000005,369000,57,188,1,1934,1,appartement,22,3
1067 TE Amsterdam,Osdorperweg 926 D,52.37976,4.76242,450000,0,0,1,0,0,,1,1
1060 NT Amsterdam,Brenner 51 .,52.35135,4.774473,400000,0,0,1,0,0,,1,1
1091 BX Amsterdam,Ruyschstraat 87 HS,52.35814,4.912148,550000,88,293,1,2005,1,appartement,25,3
1051 MC Amsterdam,Donker Curtiusstraat 135,52.377990000000004,4.871548000000001,495000,98,312,1,1996,1,appartement,23,3
1091 EL Amsterdam,Weesperzijde 99 F,52.35196,4.911543,1955000,216,647,2,1896,1,appartement,22,4
1060 PK Amsterdam,Vätternkade 77,52.349309999999996,4.782,259000,115,300,2,1998,0,appartement,22,5
1022 KD Amsterdam,Noorderkwartier (Bouwnr. 37),52.406040000000004,4.931375,408396,136,340,2,2016,1,woonhuis,3,5
1106 XC Amsterdam,Ophemerthof 130,52.29557,4.965164,150000,73,190,1,1976,1,appartement,25,2
1086 VA Amsterdam,Haringbuisdijk 32,52.36378,4.983004,539000,127,449,3,2010,0,woonhuis,24,5
1087 GT Amsterdam,Erich Salomonstraat 589,52.35605,4.999186,315000,80,240,5,2008,0,appartement,7,3
1086 ZJ Amsterdam,IJburglaan 323,52.36255,4.982346,275000,95,280,1,2009,0,appartement,20,1
1012 WL Amsterdam,Singel 371,52.36914,4.888289,1450000,238,748,6,1906,0,woonhuis,47,8
1068 CE Amsterdam,Vrijzicht 63,52.3624,4.808330000000001,169500,53,128,1,1967,0,appartement,20,2
1093 CN Amsterdam,Wagenaarstraat 193,52.36332,4.926556,575000,113,345,4,1910,0,appartement,27,4
1069 EM Amsterdam,Dijkgraafplein 121,52.35545,4.787832,175000,100,260,2,1960,0,appartement,25,4
1051 AM Amsterdam,De Wittenkade 142 huis,52.382059999999996,4.874761,350000,68,227,1,1904,1,appartement,23,3
1058 EJ Amsterdam,Nachtwachtlaan 252,52.36241,4.843277,365000,98,255,1,1970,0,appartement,34,4
1077 ZR Amsterdam,Courbetstraat 21 -I,52.34502,4.8697,698000,126,448,1,1931,0,appartement,32,5
1017 RE Amsterdam,Leidsekruisstraat 15 3,52.36353,4.88512,349000,45,105,1,1955,0,appartement,12,2
1056 HL Amsterdam,Bestevâerstraat 135 -1,52.37695,4.858798,250000,50,169,1,1906,0,appartement,15,2
1071 ED Amsterdam,Pieter de Hoochstraat 65 HS,52.35477,4.885603,950000,165,470,3,1913,1,appartement,36,6
1071 LS Amsterdam,Hondecoeterstraat 28 IV,52.35303,4.878575,375000,61,174,4,1913,0,appartement,16,2
1057 SZ Amsterdam,Bartholomeus Diazstraat 11 H,52.37011,4.854621,425000,85,220,1,1995,0,appartement,24,3
1072 JE Amsterdam,Cornelis Trooststraat 22 I,52.35038,4.887768,350000,59,180,4,1908,0,appartement,21,2
1069 ED Amsterdam,Langswater 493,52.356590000000004,4.789593,139000,61,165,1,1967,0,appartement,21,3
1069 LB Amsterdam,Baden Powellweg 41,52.34835,4.7953660000000005,200000,92,300,2,1964,0,appartement,35,4
1019 AX Amsterdam,Panamakade 37,52.372859999999996,4.944314,585000,86,420,2,2006,1,woonhuis,44,5
1091 CK Amsterdam,Blasiusstraat 19 -1,52.35647,4.908261,310000,51,169,1,1884,0,appartement,28,2
1051 BM Amsterdam,Van Hogendorpstraat 139 I,52.38302,4.873883,225000,41,125,1,1906,0,appartement,12,2
1073 CJ Amsterdam,Govert Flinckstraat 320 -hs,52.35646,4.899221,1975000,330,1000,1,1882,1,appartement,11,6
1016 AA Amsterdam,Singel 204 F,52.37402,4.88866,350000,47,150,1,1925,0,appartement,11,1
1054 TR Amsterdam,Derde Kostverlorenkade 27 -III-IV,52.35968,4.856845,559000,103,278,2,1912,0,appartement,34,4
1107 RC Amsterdam,Tielstraat 103,52.29197,4.9690129999999995,162000,71,200,1,1985,0,appartement,8,3
1055 RL Amsterdam,Juliana van Stolbergstraat 51 II,52.38069,4.856391,165000,46,138,1,1937,0,appartement,19,2
1011 DG Amsterdam,Willem Frederik Hermansstraat 127,52.37632,4.907575,750000,128,330,1,2012,0,appartement,28,4
1055 LT Amsterdam,Admiraal De Ruijterweg 251 2,52.37834,4.857080000000001,315000,66,300,2,1906,0,appartement,23,5
1011 TM Amsterdam,Foeliestraat 10 -III,52.3715,4.91019,499000,100,269,2,1930,0,appartement,18,4
1060 TN Amsterdam,P. Hans Frankfurthersingel 94,52.34665,4.795069,499000,162,499,1,2004,1,appartement,33,5
1060 NM Amsterdam,Schotse Hooglanden 48,52.352340000000005,4.770427,475000,178,515,4,1995,1,woonhuis,27,6
1066 GG Amsterdam,Duke Ellingtonstraat,52.34381,4.826893,18500,0,0,1,0,0,parkeergelegenheid,7,1
1097 CE Amsterdam,"Wakkerstraat 10 1,2&3",52.35414,4.928659,775000,210,547,3,1906,0,appartement,35,8
1054 GK Amsterdam,Vondelstraat 59 B,52.36144,4.874999,1095000,148,602,2,1885,0,appartement,32,3
1095 LG Amsterdam,Zeeburgerdijk 774,52.366209999999995,4.948429,360000,0,0,1,0,0,,1,1
1018 VM Amsterdam,Nieuwe Kerkstraat 108 H,52.36435,4.9069720000000006,650000,138,372,2,1900,1,appartement,28,6
1071 AC Amsterdam,Vossiusstraat 16 II,52.36098,4.880879,1450000,208,600,3,1906,0,appartement,30,5
1098 ES Amsterdam,Linnaeusparkweg 248 hs,52.34908,4.941674,599000,92,325,1,1953,1,appartement,29,4
1055 CK Amsterdam,Tijl Uilenspiegelstraat 7 I,52.37836,4.850894,250000,67,171,1,1940,0,appartement,24,3
1087 DK Amsterdam,Bert Haanstrakade 182,52.359809999999996,4.9952190000000005,299000,97,427,9,2007,1,appartement,40,3
1017 KZ Amsterdam,Prinsengracht 692,52.36165,4.893819000000001,1850000,169,500,4,1672,1,woonhuis,27,8
1077 XJ Amsterdam,Henriëtte Bosmansstraat 44,52.34225,4.870425,1375000,171,579,3,1954,1,woonhuis,31,5
1068 JN Amsterdam,S. F. van Ossstraat 166,52.35587,4.811856,185000,78,195,1,1963,0,appartement,29,3
1086 Amsterdam,Cornelis Zillesenlaan,52.36358,4.9823129999999995,25000,0,0,1,0,0,parkeergelegenheid,3,1
1076 JJ Amsterdam,Van Tuyll van Serooskerkenweg 117 -I,52.3438,4.858928,299000,75,308,1,1931,0,appartement,13,4
1066 SW Amsterdam,Roeselarestraat 5,52.34825,4.802812,345000,108,383,3,1995,1,woonhuis,33,4
1035 CV Amsterdam,Wipmolen 4,52.4173,4.8894,158011,79,242,1,1963,0,appartement,27,3
1055 AA Amsterdam,Bos en Lommerplantsoen 25 K,52.37673,4.844428,140000,31,93,1,2012,0,appartement,23,1
1018 BM Amsterdam,Hoogte Kadijk 30,52.36996,4.913313,1450000,250,700,3,1906,1,appartement,50,13
1053 DP Amsterdam,Kinkerstraat 177 D,52.36571,4.867506,375000,70,217,1,1982,1,appartement,23,3
1087 KH Amsterdam,Willy Mullenskade,52.35284,5.000287999999999,19900,0,0,1,0,0,parkeergelegenheid,7,1
1066 XT Amsterdam,Ottho Heldringstraat 33,52.34843,4.833439,399000,116,361,6,2001,0,appartement,20,3
1017 DS Amsterdam,Keizersgracht 633,52.36384,4.894336,5749000,706,2118,5,1687,1,woonhuis,25,37
1019 HD Amsterdam,Veembroederhof PP,52.37673,4.923301,39000,0,0,1,0,0,parkeergelegenheid,5,1
1019 ND Amsterdam,Venetiëhof 178,52.37685,4.947783,435000,89,270,1,1994,0,appartement,20,3
1093 JL Amsterdam,Domselaerstraat 15 II,52.35986,4.926724,465000,86,216,2,1902,0,appartement,20,4
1055 CC Amsterdam,Esmoreitstraat 47 - II,52.378029999999995,4.851133,250000,56,185,4,1939,0,appartement,31,4
1091 EL Amsterdam,Weesperzijde 99 F*,52.35179,4.911541000000001,1895000,216,647,2,1896,1,appartement,22,4
1068 MS Amsterdam,Professor J.H. Gunningstraat 73,52.35348,4.803964,300000,77,200,1,2007,0,appartement,20,3
1072 ND Amsterdam,Eerste Jan Steenstraat 69 -B,52.35402,4.889573,319000,52,175,1,1965,0,appartement,22,3
1018 AK Amsterdam,Funenpark 353,52.36898,4.931049,550000,102,300,1,2008,0,appartement,20,4
1046 Amsterdam,Limmerick Garagebox/Opslag,52.392109999999995,4.78938,29250,0,0,1,0,0,parkeergelegenheid,7,1
1019 DP Amsterdam,Dirk Vreekenstraat 1,52.370509999999996,4.9355970000000005,40000,0,0,1,0,0,,1,1
1091 XZ Amsterdam,Danie Theronstraat 34 III,52.35184,4.915385,275000,54,166,1,1928,0,appartement,17,4
1019 PE Amsterdam,Bogortuin 7,52.37636,4.935834,675000,158,618,2,2001,0,appartement,48,3
1072 CG Amsterdam,Saenredamstraat 10 2,52.35568,4.887869,300000,44,134,1,1906,0,appartement,20,2
1071 ZK Amsterdam,Van Breestraat 111,52.35583,4.87305,2195000,266,1161,1,1906,1,woonhuis,76,11
1083 HA Amsterdam,Mensinge 15,52.33266,4.889066000000001,450000,135,402,1,1960,0,appartement,8,4
1019 DT Amsterdam,Rietlandpark 161,52.37342,4.935276999999999,375000,109,331,1,2001,0,appartement,23,3
1067 DB Amsterdam,Suze Groenewegplantsoen 24,52.3835,4.810587,225000,89,275,1,1993,0,appartement,33,4
1063 ZM Amsterdam,Lex Althoffstraat 21 -III,52.37904,4.829855,225000,43,230,1,1953,0,appartement,32,2
1013 PR Amsterdam,Roggeveenstraat 125,52.38969,4.886689,370000,75,215,1,1881,0,appartement,28,3
1069 SZ Amsterdam,Jan Smitstraat 6 30,52.35172,4.799904,16000,0,0,1,0,0,,1,1
1076 XK Amsterdam,Theseusstraat 15 -I,52.34877,4.861983,250000,41,103,1,1906,0,appartement,31,2
1054 ZE Amsterdam,Jacob van Lennepkade 19 II+III,52.36605,4.875973999999999,1250000,195,643,2,1887,0,appartement,41,6
1087 CJ Amsterdam,Maria Austriastraat 13,52.358090000000004,4.993015,479000,140,476,3,2008,0,woonhuis,24,5
1061 MJ Amsterdam,Willem Augustinstraat 206,52.37551,4.8387080000000005,325000,98,275,1,2013,0,appartement,19,3
1077 SG Amsterdam,Stadionweg 95 III,52.3465,4.87071,610000,103,367,1,1957,0,appartement,19,4
1087 AZ Amsterdam,Johan van der Keukenstraat,52.35978,4.990364,25000,0,0,1,0,0,parkeergelegenheid,1,1
1064 CT Amsterdam,Burgemeester Hogguerstraat 411,52.37227,4.8294,43000,0,0,1,0,0,parkeergelegenheid,4,1
1069 ED Amsterdam,Langswater 465,52.35655,4.789373,145000,60,180,13,1965,0,appartement,18,3
1068 JG Amsterdam,Eastonstraat 201,52.3565,4.81295,225000,77,202,1,1964,0,appartement,29,3
1081 JW Amsterdam,Amstelveenseweg 1150,52.3222,4.8572370000000005,795000,219,708,3,1938,0,woonhuis,18,10
1051 ED Amsterdam,Groen van Prinstererstraat 1 B,52.38511,4.871659999999999,425000,78,251,1,1904,0,appartement,29,3
1095 MB Amsterdam,John Blankensteinstraat 155 A,52.37328,4.9695279999999995,510000,122,398,2,2017,1,appartement,10,4
1056 JS Amsterdam,Willem de Zwijgerlaan 50 III,52.371809999999996,4.86394,250000,48,162,1,1935,0,appartement,17,2
1068 CD Amsterdam,Vrijzicht 18,52.36248,4.80796,37500,0,0,1,0,0,,1,1
1055 RZ Amsterdam,Nieuwpoortstraat 86 D 7,52.384370000000004,4.858142,650000,146,424,2,2017,1,appartement,20,3
1052 KJ Amsterdam,Van Oldenbarneveldtstraat 100 I,52.3738,4.873462,280000,50,165,1,1906,0,appartement,32,3
1098 BS Amsterdam,Bredeweg 34 huis,52.35485,4.930989,1100000,149,640,2,1906,1,appartement,32,4
1018 AK Amsterdam,Funenpark 367,52.36873,4.931841,975000,158,569,3,2009,1,woonhuis,54,5
1056 GN Amsterdam,Admiraal De Ruijterweg 82 -III,52.3716,4.860094999999999,700000,156,420,2,1910,0,appartement,27,5
1015 HJ Amsterdam,Palmgracht 5 C,52.3821,4.884839,500000,86,283,4,2009,0,appartement,21,3
1060 PJ Amsterdam,Ladogameerhof 72,52.3508,4.7811699999999995,325000,129,420,2,1997,1,appartement,32,3
1011 NV Amsterdam,Waterlooplein 9 -C,52.36911,4.901018,350000,54,178,1,1906,0,appartement,13,2
1015 LK Amsterdam,Tweede Boomdwarsstraat 12,52.37871,4.88298,1500000,254,893,5,1723,0,woonhuis,45,8
1054 KS Amsterdam,Saxenburgerdwarsstraat 13 II,52.35849,4.861589,550000,83,196,2,1906,0,appartement,16,4
1012 JS Amsterdam,Dam 5 /X+Y,52.373090000000005,4.89409,16600000,676,2100,2,2017,1,appartement,20,11
1093 XR Amsterdam,Pieter Nieuwlandstraat 26 c,52.36153,4.927555,289000,68,220,1,1981,0,appartement,17,3
1016 RL Amsterdam,Lauriergracht 30 II,52.371809999999996,4.881752,850000,143,450,1,1906,0,appartement,27,3
1055 BA Amsterdam,Lanseloetstraat 9 H,52.376540000000006,4.849891,325000,71,239,2,1940,1,appartement,46,4
1062 AL Amsterdam,Marius Bauerstraat 235 B6,52.36254,4.836384,169000,45,151,1,2015,0,appartement,13,2
1056 PM Amsterdam,Orteliusstraat 278 hs,52.37234,4.848195,385000,72,266,4,1931,1,appartement,18,3
1060 LS Amsterdam,Hebridenlaan 37,52.34748,4.793842,449500,165,600,4,2003,1,woonhuis,47,5
1054 KD Amsterdam,Schoolstraat 20 A2,52.358670000000004,4.86169,275000,53,242,2,1883,0,appartement,22,2
1017 GR Amsterdam,Kerkstraat 156,52.363279999999996,4.8891160000000005,1600000,191,843,1,1906,1,appartement,27,4
1053 KB Amsterdam,Jacob van Lennepstraat 252 A,52.36397,4.863974,265000,49,147,4,1904,0,appartement,15,2
1015 DT Amsterdam,Prinsengracht 213 M,52.377159999999996,4.885497,345000,0,0,1,0,0,,1,1
1055 AK Amsterdam,Elckerlijcstraat 63,52.37643,4.8479410000000005,350000,86,256,1,2008,0,appartement,21,3
1075 CV Amsterdam,Koninginneweg 259 huis,52.351659999999995,4.85759,1395000,207,555,3,1906,1,appartement,39,8
1106 JX Amsterdam,Randwijkhof 16,52.29583,4.971362,225000,96,322,2,1992,1,woonhuis,21,4
1098 WS Amsterdam,Praterlaan 128,52.34363,4.950912000000001,375000,96,278,1,2001,0,appartement,26,4
1058 XR Amsterdam,Van Rensselaerstraat 5 I,52.362159999999996,4.857183,225000,52,143,1,1926,0,appartement,21,2
1087 DM Amsterdam,Talbotstraat 171,52.35853,4.995736,310000,92,275,1,2007,0,appartement,30,3
1018 AS Amsterdam,Parelstraat 40,52.37012,4.9208,325000,67,209,5,1988,0,appartement,18,3
1055 ST Amsterdam,Heer Halewijnstraat 19 III,52.377829999999996,4.85456,229000,57,186,1,1939,0,appartement,17,3
1091 TK Amsterdam,Marcusstraat,52.35152,4.912726,39000,0,0,1,0,0,parkeergelegenheid,5,1
1022 KD Amsterdam,Noorderkwartier (Bouwnr. 20),52.406040000000004,4.931375,422396,155,388,2,2016,1,woonhuis,5,5
1022 KD Amsterdam,Noorderkwartier (Bouwnr. 38),52.406040000000004,4.931375,412396,154,385,2,2016,1,woonhuis,3,5
1095 KG Amsterdam,Zuiderzeeweg 2,52.3689,4.963405000000001,299900,88,233,1,2017,0,appartement,4,1
1017 BR Amsterdam,Herengracht 445 D,52.36675,4.888879,950000,136,483,4,1906,0,appartement,29,4
1082 EK Amsterdam,Zuid-Hollandstraat 2,52.326809999999995,4.87183,45000,0,0,1,0,0,parkeergelegenheid,1,1
1107 RC Amsterdam,Tielstraat 93,52.292,4.96901,129000,54,165,1,1984,0,appartement,23,2
1035 JD Amsterdam,Beloegastraat 56,52.42214,4.887987,275000,124,421,3,1992,1,woonhuis,53,4
1052 KC Amsterdam,Van Oldenbarneveldtstraat 50 D,52.37528,4.874281,450000,79,315,1,2006,1,appartement,17,2
1059 EJ Amsterdam,Leimuidenstraat 28,52.35007,4.850315,580000,0,0,1,0,0,,1,1
1015 DW Amsterdam,Prinsengracht 38 B,52.378440000000005,4.886112000000001,330000,38,120,1,1981,1,appartement,17,2
1055 RZ Amsterdam,Nieuwpoortstraat 86 A4,52.38442,4.858304,305000,62,216,1,2017,1,appartement,20,2
1054 VZ Amsterdam,Wilhelminastraat 89 III,52.361540000000005,4.863487999999999,675000,103,327,2,1905,1,appartement,34,4
1062 LB Amsterdam,Gerrit Mannourystraat 41,52.35464,4.837912,269000,81,240,1,1993,0,appartement,28,3
1019 DK Amsterdam,Entrepothof 66,52.36923,4.936303,369000,83,258,7,1990,0,appartement,14,3
1066 GM Amsterdam,Count Basiestraat 10,52.34401,4.82557,375000,112,370,2,1991,1,woonhuis,23,5
1019 BT Amsterdam,Dijksgracht 17 B,52.37603,4.9171879999999994,298000,0,0,1,0,0,,1,1
1093 SH Amsterdam,Pontanusstraat 190,52.36377,4.930251,250000,52,164,4,1980,0,appartement,14,2
1096 AK Amsterdam,State Amsterdam,52.339529999999996,4.926469,1118806,190,494,1,2019,0,appartement,7,4
1061 GL Amsterdam,Sinjeur Semeynsstraat 66 -I,52.381159999999994,4.844239,200000,81,275,1,1945,0,appartement,36,3
1074 VV Amsterdam,Van Ostadestraat 311,52.35405,4.902371,247000,48,140,1,1906,0,appartement,1,2
1058 EB Amsterdam,Nachtwachtlaan 58,52.361090000000004,4.843293,355000,98,250,1,1968,0,appartement,13,3
1034 MV Amsterdam,Fokkezeil 47,52.41052,4.924233,185000,71,170,1,1974,0,appartement,15,3
1083 HA Amsterdam,Mensinge 15,52.33266,4.889066000000001,450000,135,355,1,1969,0,appartement,19,4
1078 PD Amsterdam,Victorieplein 39 -II,52.345620000000004,4.902552,575000,112,300,1,1906,0,appartement,31,3
1074 HT Amsterdam,Amsteldijk 31 2,52.35621,4.904726,497500,84,265,5,1890,0,appartement,28,3
1063 PV Amsterdam,Adolphine Eduardine Kokplantsoen 2,52.37941,4.816843,250000,93,280,1,1997,0,appartement,30,3
1034 ZA Amsterdam,Buiksloterdijk 411,52.40215,4.901424,378000,0,0,1,0,0,,1,1
1060 RG Amsterdam,Ladogameerhof 299,52.349509999999995,4.784287,325000,133,330,3,1998,1,appartement,29,5
1081 JR Amsterdam,Amstelveenseweg 978 C,52.3253,4.85724,500000,100,325,2,2006,1,appartement,14,3
1021 NX Amsterdam,Bankwerkerij 162,52.38385,4.917349,175000,42,124,3,1984,0,appartement,21,2
1104 LH Amsterdam,Kelbergen 157,52.31132,4.976716000000001,225000,92,235,1,1973,0,woonhuis,1,4
1071 MD Amsterdam,Valeriusstraat 41 2,52.35465,4.871027,899000,143,522,2,1906,0,appartement,33,7
1025 ZM Amsterdam,Amerbos 34,52.4029,4.945564,110000,30,95,1,1966,0,appartement,19,1
1083 KD Amsterdam,Beysterveld 219,52.32792,4.887562,700000,197,494,1,1987,0,appartement,30,4
1062 EG Amsterdam,Loosduinenstraat 62,52.35053,4.837692,315000,90,266,1,2010,0,appartement,15,2
1082 KN Amsterdam,Onstein 164,52.330009999999994,4.869435,500000,130,410,1,1960,0,appartement,32,4
1013 VJ Amsterdam,Houtrijkstraat 150,52.39071,4.877555,387500,80,180,1,1981,1,appartement,21,3
1108 GA Amsterdam,Leksmondhof 279 .,52.30944,4.980958,239000,100,372,9,1979,0,appartement,15,4
1012 GM Amsterdam,Oudezijds Voorburgwal 316 G,52.36972,4.8940529999999995,925000,180,370,1,1906,0,appartement,29,3
1098 VJ Amsterdam,Hertzstraat 10,52.34792,4.941758999999999,475000,108,310,1,1994,0,appartement,23,4
1096 AA Amsterdam,Omval 77,52.34525,4.915441,420000,95,316,1,1997,0,appartement,23,3
1016 HJ Amsterdam,Prinsengracht 292 1-4,52.3704,4.882372,1300000,177,538,4,1915,1,appartement,32,7
1067 WK Amsterdam,H.J. Algrastraat 3,52.38197,4.7892980000000005,275000,107,300,2,1990,1,woonhuis,25,4
1054 ZE Amsterdam,Jacob van Lennepkade 31 hs,52.3659,4.875506,900000,136,490,2,1906,1,appartement,29,3
1102 CA Amsterdam,Hoogoord 18,52.3127,4.95486,119500,64,165,1,1968,0,appartement,15,2
1017 NA Amsterdam,Leidsegracht 17 hs,52.36703,4.885815,1044000,174,663,2,1906,0,appartement,14,3
1012 RN Amsterdam,Wijdesteeg 3 C,52.37154,4.889798000000001,482840,60,255,3,1906,0,appartement,25,2
1064 EC Amsterdam,Burgemeester Hogguerstraat 855,52.37305,4.8281089999999995,189000,0,0,1,0,0,,1,1
1094 SZ Amsterdam,Formosastraat 44,52.35992,4.934662,300000,78,245,1,1986,0,appartement,28,3
1058 SL Amsterdam,Leiduinstraat 50 1,52.352959999999996,4.846725,299000,58,179,1,1934,0,appartement,19,3
1034 DG Amsterdam,Barkpad 43,52.40327,4.909987999999999,359000,118,415,3,1987,1,woonhuis,22,6
1017 SL Amsterdam,Weteringstraat 9,52.36206,4.889130000000001,980000,175,649,4,1906,1,woonhuis,32,5
1095 HS Amsterdam,Sumatrastraat 212 H,52.35905,4.9410419999999995,225000,45,130,5,1906,1,appartement,21,3
1011 NA Amsterdam,Valkenburgerstraat 140 C,52.36984,4.905936,449000,90,316,1,2014,0,appartement,37,3
1069 EC Amsterdam,Langswater 350,52.35549,4.790122,159000,60,180,13,1968,0,appartement,16,3
1091 VB Amsterdam,Vrolikstraat 275 -II,52.355920000000005,4.91671,275000,52,135,1,1954,0,appartement,22,2
1086 Amsterdam,IJburglaan,52.36354,4.982362999999999,45000,0,0,1,0,0,parkeergelegenheid,5,1
1055 RZ Amsterdam,Nieuwpoortstraat 86 C19,52.38432,4.857722,245000,49,173,1,2017,0,appartement,20,2
1102 AX Amsterdam,Raoul Wallenbergstraat 169,52.31773,4.957274,350000,135,430,1,2010,0,appartement,40,4
1015 GR Amsterdam,Lijnbaansgracht 52 B,52.37891,4.880205,629900,90,269,2,1906,1,appartement,39,4
1067 SR Amsterdam,Osdorperweg 501,52.3654,4.78442,1250000,398,1157,3,1981,1,woonhuis,36,8
1055 RZ Amsterdam,Nieuwpoortstraat 94 A 15,52.38425,4.856739,275000,56,198,1,2017,1,appartement,20,2
1011 CP Amsterdam,Nieuwe Ridderstraat 12 *,52.37341,4.902033,750000,121,327,3,1906,0,appartement,10,4
1018 VT Amsterdam,Nieuwe Prinsengracht 68 -sous,52.36363,4.908580000000001,450000,68,177,1,1891,1,appartement,27,3
1025 WJ Amsterdam,Buikslotermeerdijk 18,52.39731,4.92441,750000,181,676,2,1981,1,woonhuis,31,7
1063 HH Amsterdam,Böhlerpad 3,52.3828,4.826711,275000,80,275,2,1955,1,woonhuis,22,4
1087 DP Amsterdam,Cas Oorthuyskade 51,52.36105,4.989706,230000,0,0,1,0,0,,1,1
1015 AB Amsterdam,Singel 62 1-Voor,52.37767,4.892291,491000,67,277,1,1638,1,appartement,15,2
1094 HN Amsterdam,Javastraat 106 l,52.363620000000004,4.936756,216000,0,0,1,0,0,,1,1
1069 WC Amsterdam,Wijmarkthof 6,52.357040000000005,4.784839,335000,124,372,3,2011,1,woonhuis,23,4
1054 KZ Amsterdam,Vondelkerkstraat 14 -H,52.35816,4.8596379999999995,895000,116,380,2,1913,1,appartement,29,4
1067 XW Amsterdam,Burgemeester Röellstraat 570 P,52.37737,4.804545,16500,0,0,1,0,0,parkeergelegenheid,1,1
1032 AV Amsterdam,Aurikelstraat 24,52.39582,4.917447,200000,60,190,1,1930,1,appartement,28,3
1013 RV Amsterdam,Zaanstraat 32,52.38756,4.879616,199000,40,121,1,1914,0,appartement,19,2
1067 TN Amsterdam,Jacob de Rijkhof 16,52.376020000000004,4.807262000000001,315000,110,363,3,1986,1,woonhuis,7,4
1106 DM Amsterdam,Wamelstraat 69,52.30056,4.987263,143000,58,189,1,1982,1,appartement,11,2
1082 TL Amsterdam,Frieslandstraat 53,52.33341,4.878128,269000,73,238,1,1965,0,appartement,33,3
1087 NC Amsterdam,Nico Jessekade 241,52.34545,5.009225,385000,107,317,1,2001,0,appartement,28,3
1017 CC Amsterdam,Herengracht 518,52.3647,4.894606,7750000,1155,4381,6,1906,1,woonhuis,43,23
1011 PG Amsterdam,Waterlooplein 383,52.36654,4.901814,250000,35,109,1,1906,0,appartement,15,1
1094 GE Amsterdam,Madurastraat 35 -I,52.364340000000006,4.933123,275000,52,164,1,1910,0,appartement,30,3
1059 EA Amsterdam,Heemstedestraat 47 -2,52.351420000000005,4.846508999999999,275000,54,150,1,1931,0,appartement,18,3
1013 AW Amsterdam,Silodam 315,52.392520000000005,4.8904190000000005,1500000,234,805,2,2002,0,appartement,35,6
